{
    "instances": [
        {
            "tag": "alba",
            "system_id": 15,
            "meta": {
                "name": "Alba",
                "city": "Alba", 
                "country": "IT",
                "latitude": 44.716667, 
                "longitude": 8.083333
            }
        }
        ,{
            "tag": "bariinbici",
            "system_id": 9,
            "meta": {
                "name": "Bari in Bici",
                "city": "Bari", 
                "country": "IT",
                "latitude": 41.125278, 
                "longitude": 16.866667
            }
        }
        ,{
            "tag": "bassanodelgrappa",
            "system_id": 45,
            "meta": {
                "name": "Bassano del Grappa",
                "city": "Bassano del Grappa", 
                "country": "IT",
                "latitude": 45.768611, 
                "longitude": 11.736667
            }
        } 
        ,{
            "tag": "bra",
            "system_id": 14,
            "meta": {
                "name": "Bra",
                "city": "Bra", 
                "country": "IT",
                "latitude": 44.694224, 
                "longitude": 7.854795
            }
        }
        ,{
            "tag": "biciamo",
            "system_id": 65,
            "meta": {
                "name": "BICIamo",
                "city": "Cantu'", 
                "country": "IT",
                "latitude": 45.73626,
                "longitude": 9.12569
            }
        }
        ,{
            "tag": "casalmaggiore",
            "system_id": 40,
            "meta": {
                "name": "Casalmaggiore",
                "city": "Casalmaggiore", 
                "country": "IT",
                "latitude": 44.983499,
                "longitude": 10.419245
            }
        }
        ,{
            "tag": "chivasso",
            "system_id": 11,
            "meta": {
                "name": "Chivasso",
                "city": "Chivasso", 
                "country": "IT",
                "latitude": 45.189765,
                "longitude": 7.888935
            }
        }
        ,{
            "tag": "ossola",
            "system_id": 11,
            "meta": {
                "name": "Comunita' Montana Valli dell'Ossola",
                "city": "Santa Maria Maggiore - Malesco - Villette", 
                "country": "IT",
                "latitude": 46.127196,
                "longitude": 8.499169
            }
        }
        ,{
            "tag": "jesinbici",
            "system_id": 58,
            "meta": {
                "name": "JesinBici",
                "city": "Jesi", 
                "country": "IT",
                "latitude": 43.522601,
                "longitude": 13.244448
            }
        }
        ,{
            "tag": "mantova",
            "system_id": 53,
            "meta": {
                "name": "Mantova",
                "city": "Mantova", 
                "country": "IT",
                "latitude": 45.15983,
                "longitude": 10.793467
            }
        }
        ,{
            "tag": "noviligure",
            "system_id": 22,
            "meta": {
                "latitude": 44.7620048, 
                "name": "Novi Ligure",
                "city": "Novi Ligure", 
                "longitude": 8.7858956, 
                "country": "IT"
            }
        }
        
        ,{
            "tag": "oderzo",
            "system_id": 49,
            "meta": {
                "latitude": 45.77976460000001, 
                "name": "Oderzo",
                "city": "Oderzo", 
                "longitude": 12.4973111, 
                "country": "IT"
            }
        },
        {
            "tag": "nbici",
            "system_id": 1000,
            "meta": {
                "latitude": 42.8116631, 
                "name": "nbici",
                "city": "Pamplona", 
                "longitude": -1.6482653, 
                "country": "ES"
            }
        }
        ,{
            "tag": "pistoiainbici",
            "system_id": 4,
            "meta": {
                "latitude": 43.9303475, 
                "name": "PistoiainBici",
                "city": "Pistoia", 
                "longitude": 10.9078587, 
                "country": "IT"
            }
        }
        ,{
            "tag": "pontedera",
            "system_id": 64,
            "meta": {
                "latitude": 43.6625156, 
                "name": "Pontedera",
                "city": "Pontedera", 
                "longitude": 10.6363586, 
                "country": "IT"
            }
        }
        ,{
            "tag": "treviso",
            "system_id": 67,
            "meta": {
                "latitude": 45.6669011, 
                "name": "Treviso",
                "city": "Treviso", 
                "longitude": 12.243039, 
                "country": "IT"
            }
        }
        ,{
            "tag": "prato",
            "system_id": 12,
            "meta": {
                "latitude": 43.8777049, 
                "name": "Prato",
                "city": "Prato", 
                "longitude": 11.102228, 
                "country": "IT"
            }
        }
        ,{
            "tag": "sandonadipiave",
            "system_id": 50,
            "meta": {
                "latitude": 45.633185, 
                "name": "San Donà di Piave",
                "city": "San Donà di Piave", 
                "longitude": 12.5654299, 
                "country": "IT"
            }
        }
        ,{
            "tag": "settimotorinese",
            "system_id": 6,
            "meta": {
                "latitude": 45.139586, 
                "name": "Settimo Torinese",
                "city": "Settimo Torinese", 
                "longitude": 7.770978400000001, 
                "country": "IT"
            }
        }
       ,{
            "tag": "gobike",
            "system_id": 44,
            "meta": {
                "latitude": 37.0754739, 
                "name": "GoBike",
                "city": "Siracusa", 
                "longitude": 15.2865861, 
                "country": "IT"
            }
        }
        ,{
            "tag": "sondrio",
            "system_id": 63,
            "meta": {
                "latitude": 46.1698583, 
                "name": "Sondrio",
                "city": "Sondrio", 
                "longitude": 9.8787674, 
                "country": "IT"
            }
        }
        ,{
            "tag": "vercelli",
            "system_id": 56,
            "meta": {
                "latitude": 45.32022720000001, 
                "name": "Vercelli",
                "city": "Vercelli", 
                "longitude": 8.418573499999999, 
                "country": "IT"
            }
        }
        ,{
            "tag": "villorba",
            "system_id": 66,
            "meta": {
                "latitude": 45.7411227, 
                "name": "Villorba",
                "city": "Villorba", 
                "longitude": 12.2343848, 
                "country": "IT"
            }
        }
        ,{
            "tag": "roma-n-bike", 
            "system_id": 18, 
            "meta": {
                "latitude": 41.8929163, 
                "city": "Roma", 
                "name": "Roma'n'Bike", 
                "longitude": 12.4825199, 
                "country": "IT"
            }
        }
    ],
    "system": "bicincittaold",
    "class": "BicincittaOld"
}
