{
    "system": "ecovelo",
    "class": {
        "Ecovelo": {
            "instances": [
                {
                    "tag": "rubis-velo",
					"meta": {
						"city": "Bourg-en-Bresse",
						"name": "Rubis'Vélo",
						"latitude": 46.2056,
                        "longitude": 5.2289,
                        "country": "FR"
                    },
                    "dataset": "beb"
                },
				{
                    "tag": "zebullo",
                    "meta": {
                        "city": "Reims",
                        "name": "ZébullO",
						"latitude": 49.2628,
                        "longitude": 4.0347,
                        "country": "FR"
                    },
                    "dataset": "zebullo"
                },
				{
                    "tag": "tanlib",
                    "meta": {
                        "city": "Niort",
                        "name": "Vélo tanlib",
						"latitude": 46.3258,
                        "longitude": -0.4606,
                        "country": "FR"
                    },
                    "dataset": "tanlib"
                },
				{
                    "tag": "marseillan",
                    "meta": {
                        "city": "Marseillan",
                        "name": "Marseillan vélo libre-service",
						"latitude": 43.3572,
                        "longitude": 3.5283,
                        "country": "FR"
                    },
                    "dataset": "marseillan"
                },
				{
                    "tag": "velectin",
                    "meta": {
                        "city": "Calais",
                        "name": "Velect’in",
						"latitude": 50.948056,
                        "longitude": 1.856389,
                        "country": "FR"
                    },
					"dataset": "calais"
                },
				{
                    "tag": "tlp-velo",
                    "meta": {
                        "city": "Tarbes, Lourdes",
                        "name": "Tarbes et Lourdes vls",
						"latitude": 43.23,
                        "longitude": 0.07,
                        "country": "FR"
                    },
					"dataset": "tlpmobilites"
                },
				{
                    "tag": "via-velo",
                    "meta": {
                        "city": "Val d'Ille-Aubigné",
                        "name": "VIA Vélo",
						"latitude": 48.2181,
                        "longitude": -1.6947,
                        "country": "FR"
                    },
					"dataset": "via"
                },
				{
                    "tag": "velocite-laon",
                    "meta": {
                        "city": "Laon",
                        "name": "Vélo'Cité",
						"latitude": 49.5639,
                        "longitude": 3.6244,
                        "country": "FR"
                    },
					"dataset": "velocite"
                },
				{
                    "tag": "velo-baulois",
                    "meta": {
                        "city": "La Baule-Escoublac",
                        "name": "Le Vélo Baulois",
						"latitude": 47.2867,
                        "longitude": -2.3908,
                        "country": "FR"
                    },
					"dataset": "labaule"
                },
				{
                    "tag": "velyceo",
                    "meta": {
                        "city": "Saint-Nazaire",
                        "name": "vélYcéo",
						"latitude": 47.2806,
                        "longitude": -2.2086,
                        "country": "FR"
                    },
					"dataset": "velyceo"
                }
            ]
        }
    }
}
