{
    "instances": [
        {
            "domain": "le",
            "tag": "nextbike-leipzig",
            "city_uid": 1,
            "meta": {
                "city": "Leipzig",
                "country": "DE",
                "latitude": 51.3415,
                "longitude": 12.3625
            }
        },
        {
            "domain": "dx",
            "tag": "mobibike-dresden",
            "city_uid": 685,
            "meta": {
                "name": "MOBIbike",
                "city": "Dresden",
                "country": "DE",
                "latitude": 51.0535,
                "longitude": 13.7387
            }
        },
        {
            "domain": "wn",
            "tag": "nextbike-wiesbaden",
            "city_uid": 7,
            "meta": {
                "city": "Wiesbaden",
                "country": "DE",
                "latitude": 50.0709,
                "longitude": 8.24322
            }
        },
        {
            "domain": "ff",
            "tag": "visa-frankfurt",
            "city_uid": 8,
            "meta": {
                "name": "VISA",
                "city": "Frankfurt",
                "country": "DE",
                "latitude": 50.1072,
                "longitude": 8.66375
            }
        },
        {
            "domain": "kg",
            "tag": "kvb-rad-koln",
            "city_uid": 14,
            "meta": {
                "name": "KVB Rad",
                "city": "Köln",
                "country": "DE",
                "latitude": 50.9429,
                "longitude": 6.95649
            }
        },
        {
            "domain": "fg",
            "tag": "facherrad-karlsruhe",
            "city_uid": 21,
            "meta": {
                "name": "Fächerrad",
                "city": "Karlsruhe",
                "country": "DE",
                "latitude": 49.0102,
                "longitude": 8.41827
            }
        },
        {
            "domain": "na",
            "tag": "burgenland-neusiedler-see",
            "city_uid": 23,
            "meta": {
                "name": "Burgenland",
                "city": "Neusiedler See",
                "country": "AT",
                "latitude": 47.839,
                "longitude": 16.761
            }
        },
        {
            "domain": "dd",
            "tag": "nextbike-dusseldorf",
            "city_uid": 50,
            "meta": {
                "city": "Düsseldorf",
                "country": "DE",
                "latitude": 51.2243,
                "longitude": 6.77204
            }
        },
        {
            "domain": "la",
            "tag": "nextbike-stpolten",
            "city_uid": 57,
            "meta": {
                "city": "St.Pölten",
                "country": "AT",
                "latitude": 48.2058,
                "longitude": 15.6232
            }
        },
        {
            "domain": "la",
            "tag": "nextbike-modling",
            "city_uid": 64,
            "meta": {
                "city": "Mödling",
                "country": "AT",
                "latitude": 48.1047,
                "longitude": 16.3202
            }
        },
        {
            "domain": "ch",
            "tag": "nextbike-sursee",
            "city_uid": 88,
            "meta": {
                "city": "Sursee",
                "country": "CH",
                "latitude": 47.1713,
                "longitude": 8.10877
            }
        },
        {
            "domain": "ch",
            "tag": "nextbike-luzern",
            "city_uid": 126,
            "meta": {
                "city": "Luzern",
                "country": "CH",
                "latitude": 47.0472,
                "longitude": 8.30446
            }
        },
        {
            "domain": "lv",
            "tag": "sixt-riga",
            "city_uid": 128,
            "meta": {
                "name": "SiXT",
                "city": "Rīga",
                "country": "LV",
                "latitude": 56.9453,
                "longitude": 24.1033
            }
        },
        {
            "domain": "mr",
            "tag": "metropolradruhr-dortmund",
            "city_uid": 129,
            "meta": {
                "name": "metropolradruhr",
                "city": "Dortmund",
                "country": "DE",
                "latitude": 51.5141,
                "longitude": 7.46255
            }
        },
        {
            "domain": "mr",
            "tag": "metropolradruhr-bochum",
            "city_uid": 130,
            "meta": {
                "name": "metropolradruhr",
                "city": "Bochum",
                "country": "DE",
                "latitude": 51.4813,
                "longitude": 7.2133
            }
        },
        {
            "domain": "mr",
            "tag": "metropolradruhr-bottrop",
            "city_uid": 131,
            "meta": {
                "name": "metropolradruhr",
                "city": "Bottrop",
                "country": "DE",
                "latitude": 51.5263,
                "longitude": 6.94611
            }
        },
        {
            "domain": "mr",
            "tag": "metropolradruhr-duisburg",
            "city_uid": 132,
            "meta": {
                "name": "metropolradruhr",
                "city": "Duisburg",
                "country": "DE",
                "latitude": 51.4487,
                "longitude": 6.77513
            }
        },
        {
            "domain": "mr",
            "tag": "metropolradruhr-essen",
            "city_uid": 133,
            "meta": {
                "name": "metropolradruhr",
                "city": "Essen",
                "country": "DE",
                "latitude": 51.4425,
                "longitude": 7.02301
            }
        },
        {
            "domain": "mr",
            "tag": "metropolradruhr-gelsenkirchen",
            "city_uid": 134,
            "meta": {
                "name": "metropolradruhr",
                "city": "Gelsenkirchen",
                "country": "DE",
                "latitude": 51.5404,
                "longitude": 7.07039
            }
        },
        {
            "domain": "mr",
            "tag": "metropolradruhr-hamm",
            "city_uid": 135,
            "meta": {
                "name": "metropolradruhr",
                "city": "Hamm",
                "country": "DE",
                "latitude": 51.6775,
                "longitude": 7.84836
            }
        },
        {
            "domain": "mr",
            "tag": "metropolradruhr-herne",
            "city_uid": 136,
            "meta": {
                "name": "metropolradruhr",
                "city": "Herne",
                "country": "DE",
                "latitude": 51.5363,
                "longitude": 7.21493
            }
        },
        {
            "domain": "mr",
            "tag": "metropolradruhr-mulheim-adr",
            "city_uid": 137,
            "meta": {
                "name": "metropolradruhr",
                "city": "Mülheim a.d.R.",
                "country": "DE",
                "latitude": 51.4308,
                "longitude": 6.87401
            }
        },
        {
            "domain": "mr",
            "tag": "metropolradruhr-oberhausen",
            "city_uid": 138,
            "meta": {
                "name": "metropolradruhr",
                "city": "Oberhausen",
                "country": "DE",
                "latitude": 51.4936,
                "longitude": 6.85169
            }
        },
        {
            "domain": "la",
            "tag": "nextbike-wachau",
            "city_uid": 142,
            "meta": {
                "city": "Wachau",
                "country": "AT",
                "latitude": 48.3188,
                "longitude": 15.4166
            }
        },
        {
            "domain": "la",
            "tag": "nextbike-tulln",
            "city_uid": 143,
            "meta": {
                "city": "Tulln",
                "country": "AT",
                "latitude": 48.3269,
                "longitude": 16.0569
            }
        },
        {
            "domain": "la",
            "tag": "nextbike-thermenregion",
            "city_uid": 146,
            "meta": {
                "city": "Thermenregion",
                "country": "AT",
                "latitude": 47.9892,
                "longitude": 16.2646
            }
        },
        {
            "domain": "pl",
            "tag": "wrm-wroclaw",
            "city_uid": 618,
            "meta": {
                "name": "WRM",
                "city": "Wrocław",
                "country": "PL",
                "latitude": 51.1097,
                "longitude": 17.0485
            }
        },
        {
            "domain": "la",
            "tag": "nextbike-wrneustadt",
            "city_uid": 156,
            "meta": {
                "city": "Wr.Neustadt",
                "country": "AT",
                "latitude": 47.8167,
                "longitude": 16.2426
            }
        },
        {
            "domain": "dc",
            "tag": "nextbike-potsdam",
            "city_uid": 158,
            "meta": {
                "city": "Potsdam",
                "country": "DE",
                "latitude": 52.3997,
                "longitude": 13.0676
            }
        },
        {
            "domain": "dj",
            "tag": "nextbike-gutersloh",
            "city_uid": 160,
            "meta": {
                "city": "Gütersloh",
                "country": "DE",
                "latitude": 51.9049,
                "longitude": 8.39275
            }
        },
        {
            "domain": "la",
            "tag": "nextbike-10vorwien",
            "city_uid": 174,
            "meta": {
                "city": "10vorWien",
                "country": "AT",
                "latitude": 48.3403,
                "longitude": 16.279
            }
        },
        {
            "domain": "ur",
            "tag": "usedomrad-usedom",
            "city_uid": 176,
            "meta": {
                "name": "UsedomRad",
                "city": "Usedom",
                "country": "DE",
                "latitude": 53.9779,
                "longitude": 13.9925
            }
        },
        {
            "domain": "nn",
            "tag": "nextbike-norderstedt",
            "city_uid": 177,
            "meta": {
                "city": "Norderstedt",
                "country": "DE",
                "latitude": 53.6969,
                "longitude": 10.002
            }
        },
        {
            "domain": "ag",
            "tag": "swa-rad-augsburg",
            "city_uid": 178,
            "meta": {
                "name": "SWA Rad",
                "city": "Augsburg",
                "country": "DE",
                "latitude": 48.3647,
                "longitude": 10.8916
            }
        },
        {
            "domain": "cy",
            "tag": "nextbike-limassol",
            "city_uid": 190,
            "meta": {
                "city": "Limassol",
                "country": "CY",
                "latitude": 34.6823,
                "longitude": 33.0464
            }
        },
        {
            "domain": "nz",
            "tag": "nextbike-christchurch",
            "city_uid": 193,
            "meta": {
                "city": "Christchurch",
                "country": "NZ",
                "latitude": -43.5341,
                "longitude": 172.621
            }
        },
        {
            "domain": "vn",
            "tag": "vrn-heidelberg",
            "city_uid": 194,
            "meta": {
                "name": "VRN",
                "city": "Heidelberg",
                "country": "DE",
                "latitude": 49.4023,
                "longitude": 8.67577
            }
        },
        {
            "domain": "vn",
            "tag": "vrn-mannheim",
            "city_uid": 195,
            "meta": {
                "name": "VRN",
                "city": "Mannheim",
                "country": "DE",
                "latitude": 49.4869,
                "longitude": 8.45638
            }
        },
        {
            "domain": "si",
            "tag": "stadtrad-innsbruck",
            "city_uid": 199,
            "meta": {
                "name": "Stadtrad",
                "city": "Innsbruck",
                "country": "AT",
                "latitude": 47.2632,
                "longitude": 11.3961
            }
        },
        {
            "domain": "cy",
            "tag": "nextbike-nicosia",
            "city_uid": 206,
            "meta": {
                "city": "Nicosia",
                "country": "CY",
                "latitude": 35.1728,
                "longitude": 33.3653
            }
        },
        {
            "domain": "la",
            "tag": "nextbike-hollabrunn",
            "city_uid": 212,
            "meta": {
                "city": "Hollabrunn",
                "country": "AT",
                "latitude": 48.562,
                "longitude": 16.0785
            }
        },
        {
            "domain": "la",
            "tag": "nextbike-wienerwald",
            "city_uid": 213,
            "meta": {
                "city": "WienerWald",
                "country": "AT",
                "latitude": 48.1926,
                "longitude": 16.141
            }
        },
        {
            "domain": "hr",
            "tag": "nextbike-zagreb",
            "city_uid": 220,
            "meta": {
                "city": "Zagreb",
                "country": "HR",
                "latitude": 45.7984,
                "longitude": 15.9789
            }
        },
        {
            "domain": "gg",
            "tag": "nextbike-glasgow",
            "city_uid": 237,
            "meta": {
                "city": "Glasgow",
                "country": "GB",
                "latitude": 55.8589,
                "longitude": -4.25549
            }
        },
        {
            "domain": "bu",
            "tag": "belfastbikes-belfast",
            "city_uid": 238,
            "meta": {
                "name": "BelfastBikes",
                "city": "Belfast",
                "country": "GB",
                "latitude": 54.5969,
                "longitude": -5.92918
            }
        },
        {
            "domain": "uk",
            "tag": "nextbike-stirling",
            "city_uid": 243,
            "meta": {
                "city": "Stirling",
                "country": "GB",
                "latitude": 56.1165,
                "longitude": -3.9369
            }
        },
        {
            "domain": "bc",
            "tag": "grad-sibenik-sibenik",
            "city_uid": 248,
            "meta": {
                "name": "Grad Šibenik",
                "city": "Šibenik",
                "country": "HR",
                "latitude": 43.733,
                "longitude": 15.8982
            }
        },
        {
            "domain": "ln",
            "tag": "lrm-lublin-lublin",
            "city_uid": 251,
            "meta": {
                "name": "LRM Lublin",
                "city": "Lublin",
                "country": "PL",
                "latitude": 51.2469,
                "longitude": 22.5697
            }
        },
        {
            "domain": "vn",
            "tag": "vrn-ludwigshafen",
            "city_uid": 266,
            "meta": {
                "name": "VRN",
                "city": "Ludwigshafen",
                "country": "DE",
                "latitude": 49.4741,
                "longitude": 8.43287
            }
        },
        {
            "domain": "vn",
            "tag": "vrn-speyer",
            "city_uid": 278,
            "meta": {
                "name": "VRN",
                "city": "Speyer",
                "country": "DE",
                "latitude": 49.3126,
                "longitude": 8.45295
            }
        },
        {
            "domain": "vn",
            "tag": "vrn-landau",
            "city_uid": 678,
            "meta": {
                "name": "VRN",
                "city": "Landau in der Pfalz",
                "country": "DE",
                "latitude": 49.1975,
                "longitude": 8.11693
            }
        },
        {
            "domain": "nu",
            "tag": "nextbike-lviv",
            "city_uid": 280,
            "meta": {
                "city": "Lviv",
                "country": "UA",
                "latitude": 49.8402,
                "longitude": 24.0182
            }
        },
        {
            "domain": "nu",
            "tag": "nextbike-ivano-frankivsk",
            "city_uid": 525,
            "meta": {
                "city": "Ivano Frankivsk",
                "country": "UA",
                "latitude": 48.9281,
                "longitude": 24.7103
            }
        },
        {
            "domain": "dt",
            "tag": "nextbike-wurzburg",
            "city_uid": 281,
            "meta": {
                "city": "Würzburg",
                "country": "DE",
                "latitude": 49.8,
                "longitude": 9.93333
            }
        },
        {
            "domain": "ta",
            "tag": "nextbike-serfaus",
            "city_uid": 286,
            "meta": {
                "city": "Serfaus",
                "country": "AT",
                "latitude": 47.0387,
                "longitude": 10.6048
            }
        },
        {
            "domain": "mt",
            "tag": "nextbike-malta",
            "city_uid": 302,
            "meta": {
                "city": "Malta",
                "country": "MT",
                "latitude": 35.9192,
                "longitude": 14.4889
            }
        },
        {
            "domain": "kc",
            "tag": "grad-karlovac-karlovac",
            "city_uid": 305,
            "meta": {
                "name": "Grad Karlovac",
                "city": "Karlovac",
                "country": "HR",
                "latitude": 45.4905,
                "longitude": 15.5503
            }
        },
        {
            "domain": "sb",
            "tag": "grad-slavonski-brod-slavonski-brod",
            "city_uid": 308,
            "meta": {
                "name": "Grad Slavonski Brod",
                "city": "Slavonski Brod",
                "country": "HR",
                "latitude": 45.1656,
                "longitude": 18.0183
            }
        },
        {
            "domain": "ku",
            "tag": "santander-cycles-mk-milton-keynes",
            "city_uid": 320,
            "meta": {
                "name": "Santander Cycles MK",
                "city": "Milton Keynes",
                "country": "GB",
                "latitude": 52.0406,
                "longitude": -0.759417
            }
        },
        {
            "domain": "ch",
            "tag": "nextbike-hergiswil",
            "city_uid": 323,
            "meta": {
                "city": "Hergiswil",
                "country": "CH",
                "latitude": 46.9905,
                "longitude": 8.30829
            }
        },
        {
            "domain": "ma",
            "tag": "grad-makarska-makarska",
            "city_uid": 324,
            "meta": {
                "name": "Grad Makarska",
                "city": "Makarska",
                "country": "HR",
                "latitude": 43.2992,
                "longitude": 17.0184
            }
        },
        {
            "domain": "br",
            "tag": "opcina-brinje-brinje",
            "city_uid": 325,
            "meta": {
                "name": "Općina Brinje",
                "city": "Brinje",
                "country": "HR",
                "latitude": 44.9977,
                "longitude": 15.1258
            }
        },
        {
            "domain": "zd",
            "tag": "grad-zadar-zadar",
            "city_uid": 327,
            "meta": {
                "name": "Grad Zadar",
                "city": "Zadar",
                "country": "HR",
                "latitude": 44.0058,
                "longitude": 15.2183
            }
        },
        {
            "domain": "vn",
            "tag": "vrn-bensheim",
            "city_uid": 332,
            "meta": {
                "name": "VRN",
                "city": "Bensheim",
                "country": "DE",
                "latitude": 49.6803,
                "longitude": 8.6189
            }
        },
        {
            "domain": "ig",
            "tag": "grad-ivanic-grad-ivanic-grad",
            "city_uid": 337,
            "meta": {
                "name": "Grad Ivanić-Grad",
                "city": "Ivanic Grad",
                "country": "HR",
                "latitude": 45.7062,
                "longitude": 16.3919
            }
        },
        {
            "domain": "ba",
            "tag": "nextbike-sarajevo",
            "city_uid": 350,
            "meta": {
                "city": "Sarajevo",
                "country": "BA",
                "latitude": 43.85,
                "longitude": 18.39
            }
        },
        {
            "domain": "eu",
            "tag": "co-bikes-exeter",
            "city_uid": 354,
            "meta": {
                "name": "Co-bikes",
                "city": "Exeter",
                "country": "GB",
                "latitude": 50.7272,
                "longitude": -3.53605
            }
        },
        {
            "domain": "nz",
            "tag": "nextbike-auckland-waterfront",
            "city_uid": 361,
            "meta": {
                "city": "Auckland Waterfront",
                "country": "NZ",
                "latitude": -36.841,
                "longitude": 174.763
            }
        },
        {
            "domain": "bn",
            "tag": "nextbike-berlin",
            "city_uid": 362,
            "meta": {
                "city": "Berlin",
                "country": "DE",
                "latitude": 52.5087,
                "longitude": 13.3563
            }
        },
        {
            "domain": "wk",
            "tag": "wk-bike-bremen-bremen",
            "city_uid": 379,
            "meta": {
                "name": "WK-Bike",
                "city": "Bremen",
                "country": "DE",
                "latitude": 53.0781,
                "longitude": 8.80132
            }
        },
        {
            "domain": "vn",
            "tag": "vrn-worms",
            "city_uid": 382,
            "meta": {
                "name": "VRN",
                "city": "Worms",
                "country": "DE",
                "latitude": 49.6394,
                "longitude": 8.34618
            }
        },
        {
            "domain": "ch",
            "tag": "nextbike-stans",
            "city_uid": 383,
            "meta": {
                "city": "Stans",
                "country": "CH",
                "latitude": 46.9593,
                "longitude": 8.36836
            }
        },
        {
            "domain": "ch",
            "tag": "nextbike-stansstad",
            "city_uid": 388,
            "meta": {
                "city": "Stansstad",
                "country": "CH",
                "latitude": 46.9801,
                "longitude": 8.34098
            }
        },
        {
            "domain": "ch",
            "tag": "nextbike-horw",
            "city_uid": 391,
            "meta": {
                "city": "Horw",
                "country": "CH",
                "latitude": 47.0188,
                "longitude": 8.30828
            }
        },
        {
            "domain": "vn",
            "tag": "vrn-burstadt",
            "city_uid": 392,
            "meta": {
                "name": "VRN",
                "city": "Bürstadt",
                "country": "DE",
                "latitude": 49.6461,
                "longitude": 8.44917
            }
        },
        {
            "domain": "la",
            "tag": "nextbike-gross-enzersdorf",
            "city_uid": 395,
            "meta": {
                "city": "Groß Enzersdorf",
                "country": "AT",
                "latitude": 48.1986,
                "longitude": 16.5496
            }
        },
        {
            "domain": "ka",
            "tag": "nextbike-klagenfurt",
            "city_uid": 396,
            "meta": {
                "city": "Klagenfurt",
                "country": "AT",
                "latitude": 46.6335,
                "longitude": 14.3085
            }
        },
        {
            "domain": "vn",
            "tag": "vrn-kaiserslautern",
            "city_uid": 398,
            "meta": {
                "name": "VRN",
                "city": "Kaiserslautern",
                "country": "DE",
                "latitude": 49.4413,
                "longitude": 7.75566
            }
        },
        {
            "domain": "el",
            "tag": "sitycleta-las-palmas-las-palmas-de-gran-canaria",
            "city_uid": 408,
            "meta": {
                "name": "Sitycleta",
                "city": "Las Palmas de Gran Canaria",
                "country": "ES",
                "latitude": 28.1236,
                "longitude": -15.4366
            }
        },
        {
            "domain": "cg",
            "tag": "grad-velika-gorica-velika-gorica",
            "city_uid": 415,
            "meta": {
                "name": "Grad Velika Gorica",
                "city": "Velika Gorica",
                "country": "HR",
                "latitude": 45.7161,
                "longitude": 16.0683
            }
        },
        {
            "domain": "cs",
            "tag": "grad-sisak-sisak",
            "city_uid": 416,
            "meta": {
                "name": "Grad Sisak",
                "city": "Sisak",
                "country": "HR",
                "latitude": 45.4875,
                "longitude": 16.3753
            }
        },
        {
            "domain": "cm",
            "tag": "grad-metkovic-metkovic",
            "city_uid": 424,
            "meta": {
                "name": "Grad Metković",
                "city": "Metković",
                "country": "HR",
                "latitude": 43.0654,
                "longitude": 17.642
            }
        },
        {
            "domain": "cj",
            "tag": "jastrebarsko-jastrebarsko",
            "city_uid": 425,
            "meta": {
                "city": "Jastrebarsko",
                "country": "HR",
                "latitude": 45.6692,
                "longitude": 15.6541
            }
        },
        {
            "domain": "gd",
            "tag": "grad-drnis-drnis",
            "city_uid": 426,
            "meta": {
                "city": "Drniš",
                "country": "HR",
                "latitude": 43.8425,
                "longitude": 16.1197
            }
        },
        {
            "domain": "bz",
            "tag": "nextbike-tuzla",
            "city_uid": 427,
            "meta": {
                "city": "Tuzla",
                "country": "BA",
                "latitude": 44.5392,
                "longitude": 18.675
            }
        },
        {
            "domain": "as",
            "tag": "arriva-nitra",
            "city_uid": 430,
            "meta": {
                "name": "Arriva",
                "city": "Nitra",
                "country": "SK",
                "latitude": 48.3088,
                "longitude": 18.0783
            }
        },
        {
            "domain": "nm",
            "tag": "nextbike-marburg",
            "city_uid": 438,
            "meta": {
                "city": "Marburg",
                "country": "DE",
                "latitude": 50.8019,
                "longitude": 8.76444
            }
        },
        {
            "domain": "bh",
            "tag": "bubi",
            "city_uid": 699,
            "meta": {
                "latitude": 47.497912,
                "longitude": 19.040235,
                "city": "Budapest",
                "name": "MOL Bubi",
                "country": "HU"
            }
        },
        {
            "domain": "do",
            "tag": "nextbike-russelsheim-am-main",
            "city_uid": 439,
            "meta": {
                "city": "Rüsselsheim am Main",
                "country": "DE",
                "latitude": 49.9881,
                "longitude": 8.42142
            }
        },
        {
            "domain": "vn",
            "tag": "vrn-heppenheim",
            "city_uid": 448,
            "meta": {
                "name": "VRN",
                "city": "Heppenheim",
                "country": "DE",
                "latitude": 49.6431,
                "longitude": 8.63889
            }
        },
        {
            "domain": "dk",
            "tag": "nextbike-kassel",
            "city_uid": 462,
            "meta": {
                "city": "Kassel",
                "country": "DE",
                "latitude": 51.3127,
                "longitude": 9.47975
            }
        },
        {
            "domain": "ch",
            "tag": "nextbike-sarnen",
            "city_uid": 463,
            "meta": {
                "city": "Sarnen",
                "country": "CH",
                "latitude": 46.8963,
                "longitude": 8.24614
            }
        },
        {
            "domain": "ch",
            "tag": "nextbike-wolfenschiessen",
            "city_uid": 464,
            "meta": {
                "city": "Wolfenschiessen",
                "country": "CH",
                "latitude": 46.9079,
                "longitude": 8.39767
            }
        },
        {
            "domain": "ch",
            "tag": "nextbike-oberdorf",
            "city_uid": 465,
            "meta": {
                "city": "Oberdorf",
                "country": "CH",
                "latitude": 46.9563,
                "longitude": 8.3884
            }
        },
        {
            "domain": "ng",
            "tag": "nextbike-giessen",
            "city_uid": 467,
            "meta": {
                "city": "Gießen",
                "country": "DE",
                "latitude": 50.5943,
                "longitude": 8.68097
            }
        },
        {
            "domain": "vn",
            "tag": "vrn-weinheim",
            "city_uid": 469,
            "meta": {
                "name": "VRN",
                "city": "Weinheim",
                "country": "DE",
                "latitude": 49.545,
                "longitude": 8.66027
            }
        },
        {
            "domain": "uc",
            "tag": "nextbike-cardiff",
            "city_uid": 476,
            "meta": {
                "city": "Cardiff",
                "country": "GB",
                "latitude": 51.4848,
                "longitude": -3.19062
            }
        },
        {
            "domain": "vn",
            "tag": "vrn-hockenheim",
            "city_uid": 477,
            "meta": {
                "name": "VRN",
                "city": "Hockenheim",
                "country": "DE",
                "latitude": 49.3227,
                "longitude": 8.54258
            }
        },
        {
            "domain": "vn",
            "tag": "vrn-schwetzingen",
            "city_uid": 480,
            "meta": {
                "name": "VRN",
                "city": "Schwetzingen",
                "country": "DE",
                "latitude": 49.3863,
                "longitude": 8.5756
            }
        },
        {
            "domain": "ch",
            "tag": "nextbike-ennetmoos",
            "city_uid": 483,
            "meta": {
                "city": "Ennetmoos",
                "country": "CH",
                "latitude": 46.9573,
                "longitude": 8.3377
            }
        },
        {
            "domain": "vn",
            "tag": "vrn-eppelheim",
            "city_uid": 484,
            "meta": {
                "name": "VRN",
                "city": "Eppelheim",
                "country": "DE",
                "latitude": 49.4025,
                "longitude": 8.6331
            }
        },
        {
            "domain": "su",
            "tag": "nextbike-university-of-surrey",
            "city_uid": 485,
            "meta": {
                "city": "Surrey",
                "country": "GB",
                "latitude": 51.2422,
                "longitude": -0.590594
            }
        },
        {
            "domain": "uu",
            "tag": "santander-cycles-swansea-swansea-university",
            "city_uid": 486,
            "meta": {
                "name": "Santander Cycles",
                "city": "Swansea",
                "country": "GB",
                "latitude": 51.6106,
                "longitude": -3.9764
            }
        },
        {
            "domain": "ef",
            "tag": "nextbike-erfurt",
            "city_uid": 493,
            "meta": {
                "city": "Erfurt",
                "country": "DE",
                "latitude": 50.9785,
                "longitude": 11.0334
            }
        },
        {
            "domain": "bj",
            "tag": "bl-bike-banja-luka",
            "city_uid": 494,
            "meta": {
                "name": "BL bike",
                "city": "Banja Luka",
                "country": "BA",
                "latitude": 44.775,
                "longitude": 17.1994
            }
        },
        {
            "domain": "nu",
            "tag": "lviv-odessa",
            "city_uid": 525,
            "meta": {
                "city": "Odessa",
                "country": "UA",
                "latitude": 46.463,
                "longitude": 30.7042
            }
        },
        {
            "domain": "sn",
            "tag": "santander-monchengladbach",
            "city_uid": 530,
            "meta": {
                "name": "Santander Mönchengladbach",
                "city": "Mönchengladbach",
                "country": "DE",
                "latitude": 51.1817,
                "longitude": 6.43578
            }
        },
        {
            "domain": "cn",
            "tag": "nomagobikes-celje",
            "city_uid": 531,
            "meta": {
                "name": "NomagoBikes",
                "city": "Celje",
                "country": "SI",
                "latitude": 46.2388,
                "longitude": 15.2693
            }
        },
        {
            "domain": "bo",
            "tag": "bilbon-bizi",
            "city_uid": 532,
            "meta": {
                "name": "BilbonBizi",
                "city": "Bilbao",
                "country": "ES",
                "latitude": 43.2752,
                "longitude": -2.93528
            }
        },
        {
            "domain": "cn",
            "tag": "nomagobikes-lasko",
            "city_uid": 535,
            "meta": {
                "name": "NomagoBikes",
                "city": "Laško",
                "country": "SI",
                "latitude": 46.1458,
                "longitude": 15.2312
            }
        },
        {
            "domain": "li",
            "tag": "nextbike-lippstadt",
            "city_uid": 536,
            "meta": {
                "city": "Lippstadt",
                "country": "DE",
                "latitude": 51.6755,
                "longitude": 8.34394
            }
        },
        {
            "domain": "ak",
            "tag": "bikekia-zilina",
            "city_uid": 538,
            "meta": {
                "name": "BikeKia",
                "city": "Žilina",
                "country": "SK",
                "latitude": 49.2217,
                "longitude": 18.7572
            }
        },
        {
            "domain": "uv",
            "tag": "nextbike-vinnytsia",
            "city_uid": 546,
            "meta": {
                "city": "Vinnytsia",
                "country": "UA",
                "latitude": 49.2328,
                "longitude": 28.4625
            }
        },
        {
            "domain": "bf",
            "tag": "nextbike-bonn",
            "city_uid": 547,
            "meta": {
                "city": "Bonn",
                "country": "DE",
                "latitude": 50.7367,
                "longitude": 7.09541
            }
        },
        {
            "domain": "pw",
            "tag": "rowerowe-lodzkie-rl-koluszki",
            "city_uid": 562,
            "meta": {
                "name": "Rowerowe Łódzkie",
                "city": "Koluszki",
                "country": "PL",
                "latitude": 51.7401,
                "longitude": 19.835
            }
        },
        {
            "domain": "pw",
            "tag": "rowerowe-lodzkie-rl-lask",
            "city_uid": 563,
            "meta": {
                "name": "Rowerowe Łódzkie",
                "city": "Łask",
                "country": "PL",
                "latitude": 51.5893,
                "longitude": 19.142
            }
        },
        {
            "domain": "pw",
            "tag": "rowerowe-lodzkie-rl-lowicz",
            "city_uid": 564,
            "meta": {
                "name": "Rowerowe Łódzkie",
                "city": "Łowicz",
                "country": "PL",
                "latitude": 52.1057,
                "longitude": 19.9381
            }
        },
        {
            "domain": "pw",
            "tag": "rowerowe-lodzkie-rl-pabianice",
            "city_uid": 565,
            "meta": {
                "name": "Rowerowe Łódzkie",
                "city": "Pabianice",
                "country": "PL",
                "latitude": 51.6651,
                "longitude": 19.3548
            }
        },
        {
            "domain": "pw",
            "tag": "rowerowe-lodzkie-rl-sieradz",
            "city_uid": 566,
            "meta": {
                "name": "Rowerowe Łódzkie",
                "city": "Sieradz",
                "country": "PL",
                "latitude": 51.5902,
                "longitude": 18.7382
            }
        },
        {
            "domain": "pw",
            "tag": "rowerowe-lodzkie-rl-skierniewice",
            "city_uid": 567,
            "meta": {
                "name": "Rowerowe Łódzkie",
                "city": "Skierniewice",
                "country": "PL",
                "latitude": 51.9539,
                "longitude": 20.1469
            }
        },
        {
            "domain": "pw",
            "tag": "rowerowe-lodzkie-rl-zdunska-wola",
            "city_uid": 568,
            "meta": {
                "name": "Rowerowe Łódzkie",
                "city": "Zduńska Wola",
                "country": "PL",
                "latitude": 51.6011,
                "longitude": 18.938
            }
        },
        {
            "domain": "pw",
            "tag": "rowerowe-lodzkie-rl-zgierz",
            "city_uid": 569,
            "meta": {
                "name": "Rowerowe Łódzkie",
                "city": "Zgierz",
                "country": "PL",
                "latitude": 51.8551,
                "longitude": 19.4068
            }
        },
        {
            "domain": "pw",
            "tag": "rowerowe-lodzkie-rl-kutno",
            "city_uid": 570,
            "meta": {
                "name": "Rowerowe Łódzkie",
                "city": "Kutno",
                "country": "PL",
                "latitude": 52.2317,
                "longitude": 19.3564
            }
        },
        {
            "domain": "pw",
            "tag": "rowerowe-lodzkie-rl-lodz-rl",
            "city_uid": 571,
            "meta": {
                "name": "Rowerowe Łódzkie",
                "city": "Łódź",
                "country": "PL",
                "latitude": 51.7674,
                "longitude": 19.4575
            }
        },
        {
            "domain": "df",
            "tag": "frelo-freiburg",
            "city_uid": 619,
            "meta": {
                "name": "Frelo",
                "city": "Freiburg",
                "country": "DE",
                "latitude": 47.9958,
                "longitude": 7.84453
            }
        },
        {
            "domain": "wr",
            "tag": "wienmobil-rad",
            "city_uid": 748,
            "meta": {
                "name": "WienMobil Rad",
                "city": "Wien",
                "country": "AT",
                "latitude": 48.2081743,
                "longitude": 16.3738189
            }
        },
        {
            "domain": "sl",
            "tag": "alsa-nextbike-leon",
            "city_uid": 701,
            "meta": {
                "latitude": 42.5987263,
                "city": "Le\u00f3n",
                "name": "Alsa nextbike Le\u00f3n",
                "longitude": -5.5670959,
                "country": "ES",
                "company": [
                    "Leonbici Nextbike Gmbh Y Autobuses Urbanos De Leon S.a. Ute"
                ]
            }
        },
        {
            "domain": "cz",
            "tag": "nextbike-prostejov",
            "city_uid": 549,
            "meta": {
                "name": "nextbike Prostejov",
                "city": "Prostejov",
                "country": "CZ",
                "latitude": 49.4722,
                "longitude": 17.1055
            }
        },
        {
            "domain": "nw",
            "tag": "nextbike-focsani",
            "city_uid": 510,
            "meta": {
                "name": "nextbike Romania",
                "city": "Foc\u0219ani",
                "country": "RO",
                "latitude": 45.6947,
                "longitude": 27.1851
            }
        },
        {
            "domain": "vu",
            "tag": "grad-vukovar",
            "city_uid": 328,
            "meta": {
                "name": "Grad Vukovar (Croatia)",
                "city": "Vukovar",
                "country": "HR",
                "latitude": 45.3575,
                "longitude": 18.9895
            }
        },
        {
            "domain": "sg",
            "tag": "grad-zapresic",
            "city_uid": 723,
            "meta": {
                "name": "Grad Zapre\u0161i\u0107 (Croatia)",
                "city": "Zapre\u0161i\u0107",
                "country": "HR",
                "latitude": 45.8622,
                "longitude": 15.8049
            }
        },
        {
            "domain": "ub",
            "tag": "santander-brunel",
            "city_uid": 487,
            "meta": {
                "name": "Santander Cycles - Brunel",
                "city": "Brunel University",
                "country": "GB",
                "latitude": 51.5463,
                "longitude": -0.48048
            }
        },
        {
            "domain": "pu",
            "tag": "pobiedziski-rower-gminny-pobiedziska",
            "city_uid": 504,
            "meta": {
                "name": "Pobiedziski Rower Gminny Poland",
                "city": "Pobiedziska",
                "country": "PL",
                "latitude": 52.4765,
                "longitude": 17.2866
            }
        },
        {
            "domain": "dp",
            "tag": "piotrkowski-rower-miejski-piotrkow-trybunalski",
            "city_uid": 518,
            "meta": {
                "name": "Piotrkowski Rower Miejski Poland",
                "city": "Piotrk\u00f3w Trybunalski",
                "country": "PL",
                "latitude": 51.3975,
                "longitude": 19.6779
            }
        },
        {
            "domain": "ds",
            "tag": "sap-walldorf",
            "city_uid": 592,
            "meta": {
                "name": "SAP Walldorf",
                "city": "Walldorf",
                "country": "DE",
                "latitude": 49.2945,
                "longitude": 8.62324
            }
        },
        {
            "domain": "se",
            "tag": "opcina-pitomaca",
            "city_uid": 574,
            "meta": {
                "name": "Op\u0107ina Pitoma\u010da (Croatia)",
                "city": "Pitoma\u010da",
                "country": "HR",
                "latitude": 45.9077,
                "longitude": 17.2622
            }
        },
        {
            "domain": "cc",
            "tag": "nomago-ljubljana",
            "city_uid": 717,
            "meta": {
                "name": "Nomago Bikes - LJUBLJANA",
                "city": "Ljubljana",
                "country": "SI",
                "latitude": 46.0577,
                "longitude": 14.5013
            }
        },
        {
            "domain": "pg",
            "tag": "system-roweru-gminnego-pielgrzymka",
            "city_uid": 593,
            "meta": {
                "name": "System Roweru Gminnego Poland",
                "city": "Pielgrzymka",
                "country": "PL",
                "latitude": 51.1185,
                "longitude": 15.8153
            }
        },
        {
            "domain": "dr",
            "tag": "rvk",
            "city_uid": 648,
            "meta": {
                "name": "RVK",
                "city": "RVK e-Bike",
                "country": "DE",
                "latitude": 50.7069,
                "longitude": 6.87607
            }
        },
        {
            "domain": "dw",
            "tag": "wupsi",
            "city_uid": 607,
            "meta": {
                "name": "wupsiRad Leverkusen",
                "city": "Leverkusen",
                "country": "DE",
                "latitude": 51.0732,
                "longitude": 7.00814
            }
        },
        {
            "domain": "ls",
            "tag": "lovesharing-canary-islands-gran-canaria",
            "city_uid": 638,
            "meta": {
                "name": "Lovesharing (Canary Islands)",
                "city": "Gran Canaria",
                "country": "ES",
                "latitude": 27.8154,
                "longitude": -15.5182
            }
        },
        {
            "domain": "ls",
            "tag": "lovesharing-canary-islands-lanzarote",
            "city_uid": 674,
            "meta": {
                "name": "Lovesharing (Canary Islands)",
                "city": "Lanzarote",
                "country": "ES",
                "latitude": 29.0491,
                "longitude": -13.5729
            }
        },
        {
            "domain": "ls",
            "tag": "lovesharing-canary-islands-fuerteventura",
            "city_uid": 675,
            "meta": {
                "name": "Lovesharing (Canary Islands)",
                "city": "Fuerteventura",
                "country": "ES",
                "latitude": 28.3584,
                "longitude": -14.064
            }
        },
        {
            "domain": "dv",
            "tag": "vagrad",
            "city_uid": 626,
            "meta": {
                "name": "VAG_Rad",
                "city": "N\u00fcrnberg",
                "country": "DE",
                "latitude": 49.4487,
                "longitude": 11.0794,
                "company": [
                    "VAG Verkehrs-Aktiengesellschaft"
                ]
            }
        },
        {
            "domain": "gt",
            "tag": "grad-split",
            "city_uid": 617,
            "meta": {
                "name": "Grad Split (Croatia)",
                "city": "Split",
                "country": "HR",
                "latitude": 43.5162,
                "longitude": 16.4637
            }
        },
        {
            "domain": "gt",
            "tag": "grad-split-solin",
            "city_uid": 740,
            "meta": {
                "name": "Grad Split (Croatia)",
                "city": "Solin",
                "country": "HR",
                "latitude": 43.5441,
                "longitude": 16.4833
            }
        },
        {
            "domain": "gt",
            "tag": "grad-split-opcina-klis",
            "city_uid": 741,
            "meta": {
                "name": "Grad Split (Croatia)",
                "city": "Op\u0107ina Klis",
                "country": "HR",
                "latitude": 43.5605,
                "longitude": 16.5269
            }
        },
        {
            "domain": "gt",
            "tag": "grad-split-opcina-hrvace",
            "city_uid": 742,
            "meta": {
                "name": "Grad Split (Croatia)",
                "city": "Op\u0107ina Hrvace",
                "country": "HR",
                "latitude": 43.7553,
                "longitude": 16.6197
            }
        },
        {
            "domain": "gt",
            "tag": "grad-split-opcina-otok-dalmatinski",
            "city_uid": 743,
            "meta": {
                "name": "Grad Split (Croatia)",
                "city": "Op\u0107ina Otok Dalmatinski",
                "country": "HR",
                "latitude": 43.6889,
                "longitude": 16.7361
            }
        },
        {
            "domain": "gt",
            "tag": "grad-split-sinj",
            "city_uid": 744,
            "meta": {
                "name": "Grad Split (Croatia)",
                "city": "Sinj",
                "country": "HR",
                "latitude": 43.7031,
                "longitude": 16.6364
            }
        },
        {
            "domain": "gt",
            "tag": "grad-split-podstrana",
            "city_uid": 766,
            "meta": {
                "name": "Grad Split (Croatia)",
                "city": "Podstrana",
                "country": "HR",
                "latitude": 43.4934,
                "longitude": 16.5598
            }
        },
        {
            "domain": "gt",
            "tag": "grad-split-trogir",
            "city_uid": 802,
            "meta": {
                "name": "Grad Split (Croatia)",
                "city": "Trogir",
                "country": "HR",
                "latitude": 43.5234,
                "longitude": 16.2476
            }
        },
        {
            "domain": "to",
            "tag": "nextbike-ostrava",
            "city_uid": 271,
            "meta": {
                "name": "nextbike Ostrava",
                "city": "Ostrava",
                "country": "CZ",
                "latitude": 49.8344,
                "longitude": 18.2823
            }
        },
        {
            "domain": "to",
            "tag": "nextbike-ostrava-hlucin",
            "city_uid": 752,
            "meta": {
                "name": "nextbike Ostrava",
                "city": "Hlu\u010d\u00edn",
                "country": "CZ",
                "latitude": 49.898,
                "longitude": 18.1923
            }
        },
        {
            "domain": "to",
            "tag": "nextbike-ostrava-vresina",
            "city_uid": 758,
            "meta": {
                "name": "nextbike Ostrava",
                "city": "V\u0159esina",
                "country": "CZ",
                "latitude": 49.825,
                "longitude": 18.1206
            }
        },
        {
            "domain": "ei",
            "tag": "ibizi-ibiza-city",
            "city_uid": 629,
            "meta": {
                "name": "ibizi",
                "city": "Ibiza-City",
                "country": "ES",
                "latitude": 38.9066,
                "longitude": 1.42046
            }
        },
        {
            "domain": "dh",
            "tag": "sprintrad",
            "city_uid": 87,
            "meta": {
                "name": "sprintRAD",
                "city": "Hannover",
                "country": "DE",
                "latitude": 52.3721,
                "longitude": 9.73569
            }
        },
        {
            "domain": "pa",
            "tag": "komornicki-system-rowerowy-komorniki",
            "city_uid": 630,
            "meta": {
                "name": "Komornicki System Rowerowy Poland",
                "city": "Komorniki",
                "country": "PL",
                "latitude": 52.3347,
                "longitude": 16.8094
            }
        },
        {
            "domain": "th",
            "tag": "nextbike-havirov",
            "city_uid": 637,
            "meta": {
                "name": "nextbike Hav\u00ed\u0159ov",
                "city": "Hav\u00ed\u0159ov",
                "country": "CZ",
                "latitude": 49.7799,
                "longitude": 18.4328
            }
        },
        {
            "domain": "td",
            "tag": "nextbike-berounsko",
            "city_uid": 655,
            "meta": {
                "name": "nextbike Berounsko",
                "city": "Berounsko",
                "country": "CZ",
                "latitude": 49.9616,
                "longitude": 14.064
            }
        },
        {
            "domain": "da",
            "tag": "ready4green-graben",
            "city_uid": 647,
            "meta": {
                "name": "Graben - ready4green",
                "city": "Graben",
                "country": "DE",
                "latitude": 51.1242,
                "longitude": 10.8984
            }
        },
        {
            "domain": "pf",
            "tag": "oleski-rower-miejski-olesno",
            "city_uid": 650,
            "meta": {
                "name": "Oleski Rower Miejski Poland",
                "city": "Olesno",
                "country": "PL",
                "latitude": 50.8773,
                "longitude": 18.4212
            }
        },
        {
            "domain": "zg",
            "tag": "styr-staell-goeteborg",
            "city_uid": 658,
            "meta": {
                "name": "Styr & St\u00e4ll (Sweden, G\u00f6teborg)",
                "city": "G\u00f6teborg",
                "country": "SE",
                "latitude": 57.6902,
                "longitude": 11.9881
            }
        },
        {
            "domain": "dn",
            "tag": "nibelungen-bike-braunschweig",
            "city_uid": 657,
            "meta": {
                "name": "Nibelungen-Bike",
                "city": "Braunschweig",
                "country": "DE",
                "latitude": 52.2597,
                "longitude": 10.5307
            }
        },
        {
            "domain": "te",
            "tag": "nextbike-brno",
            "city_uid": 660,
            "meta": {
                "name": "nextbike Brno",
                "city": "Brno",
                "country": "CZ",
                "latitude": 49.1911,
                "longitude": 16.6148
            }
        },
        {
            "domain": "te",
            "tag": "nextbike-brno-kurim",
            "city_uid": 767,
            "meta": {
                "name": "nextbike Brno",
                "city": "Ku\u0159im",
                "country": "CZ",
                "latitude": 49.2994,
                "longitude": 16.5368
            }
        },
        {
            "domain": "tg",
            "tag": "nextbike-praha",
            "city_uid": 661,
            "meta": {
                "name": "nextbike Praha",
                "city": "Praha",
                "country": "CZ",
                "latitude": 50.0592,
                "longitude": 14.5761
            }
        },
        {
            "domain": "tg",
            "tag": "nextbike-praha-ricany",
            "city_uid": 736,
            "meta": {
                "name": "nextbike Praha",
                "city": "\u0158\u00ed\u010dany",
                "country": "CZ",
                "latitude": 49.9976,
                "longitude": 14.6685
            }
        },
        {
            "domain": "ti",
            "tag": "nextbike-olomouc",
            "city_uid": 663,
            "meta": {
                "name": "nextbike Olomouc",
                "city": "Olomouc",
                "country": "CZ",
                "latitude": 49.5929,
                "longitude": 17.2459
            }
        },
        {
            "domain": "tk",
            "tag": "nextbike-kladno",
            "city_uid": 659,
            "meta": {
                "name": "nextbike Kladno",
                "city": "Kladno",
                "country": "CZ",
                "latitude": 50.1435,
                "longitude": 14.1082
            }
        },
        {
            "domain": "tj",
            "tag": "nextbike-opava",
            "city_uid": 662,
            "meta": {
                "name": "nextbike Opava",
                "city": "Opava",
                "country": "CZ",
                "latitude": 49.9289,
                "longitude": 18.2634
            }
        },
        {
            "domain": "dg",
            "tag": "nextbike-bielefeld",
            "city_uid": 16,
            "meta": {
                "name": "meinSiggi",
                "city": "Bielefeld",
                "country": "DE",
                "latitude": 52.0257,
                "longitude": 8.53286
            }
        },
        {
            "domain": "yp",
            "tag": "yoy-san-luis-potosi",
            "city_uid": 664,
            "meta": {
                "name": "YOY - San Luis Potosi",
                "city": "San Luis Potosi",
                "country": "MX",
                "latitude": 22.438,
                "longitude": -100.514
            }
        },
        {
            "domain": "yp",
            "tag": "yoy-san-luis-potosi-cancun",
            "city_uid": 695,
            "meta": {
                "name": "YOY - San Luis Potosi",
                "city": "Canc\u00fan",
                "country": "MX",
                "latitude": 21.1675,
                "longitude": -86.8498
            }
        },
        {
            "domain": "ac",
            "tag": "bergisches-e-bike",
            "city_uid": 676,
            "meta": {
                "name": "Bergisches e-Bike",
                "city": "Bergisches e-Bike",
                "country": "DE",
                "latitude": 51.0192,
                "longitude": 7.18025
            }
        },
        {
            "domain": "tm",
            "tag": "nextbike-pardubice",
            "city_uid": 680,
            "meta": {
                "name": "nextbike Pardubice",
                "city": "Pardubice",
                "country": "CZ",
                "latitude": 50.0343,
                "longitude": 15.7812
            }
        },
        {
            "domain": "tl",
            "tag": "nextbike-hradec-kralove",
            "city_uid": 682,
            "meta": {
                "name": "nextbike Hradec Kr\u00e1lov\u00e9",
                "city": "Hradec Kr\u00e1lov\u00e9",
                "country": "CZ",
                "latitude": 50.2079,
                "longitude": 15.8334
            }
        },
        {
            "domain": "tq",
            "tag": "nextbike-mladoboleslavsko-mlada-boleslav",
            "city_uid": 681,
            "meta": {
                "name": "nextbike Mladoboleslavsko",
                "city": "Mlad\u00e1 Boleslav",
                "country": "CZ",
                "latitude": 50.4278,
                "longitude": 14.8999
            }
        },
        {
            "domain": "tq",
            "tag": "nextbike-mladoboleslavsko-mnichovo-hradiste",
            "city_uid": 704,
            "meta": {
                "name": "nextbike Mladoboleslavsko",
                "city": "Mnichovo Hradi\u0161t\u011b",
                "country": "CZ",
                "latitude": 50.5218,
                "longitude": 14.9741
            }
        },
        {
            "domain": "dz",
            "tag": "oeynrad-bad-oeynhausen",
            "city_uid": 689,
            "meta": {
                "name": "Oeynrad",
                "city": "Bad Oeynhausen",
                "country": "DE",
                "latitude": 52.2051,
                "longitude": 8.80074
            }
        },
        {
            "domain": "rb",
            "tag": "rsvg-bike",
            "city_uid": 691,
            "meta": {
                "name": "RSVG-Bike",
                "city": "RSVG",
                "country": "DE",
                "latitude": 50.7669,
                "longitude": 7.37457
            }
        },
        {
            "domain": "al",
            "tag": "citybikelinz",
            "city_uid": 692,
            "meta": {
                "name": "city bike Linz",
                "city": "Linz",
                "country": "AT",
                "latitude": 48.3003,
                "longitude": 14.2843
            }
        },
        {
            "domain": "rd",
            "tag": "velopark-drobeta",
            "city_uid": 693,
            "meta": {
                "name": "Drobeta Velopark",
                "city": "Drobeta",
                "country": "RO",
                "latitude": 44.6326,
                "longitude": 22.6564
            }
        },
        {
            "domain": "ce",
            "tag": "nomago-gorica",
            "city_uid": 688,
            "meta": {
                "name": "Nomago Bikes - GO2GO",
                "city": "Nova Gorica",
                "country": "SI",
                "latitude": 45.9576,
                "longitude": 13.6406
            }
        },
        {
            "domain": "rs",
            "tag": "saturn",
            "city_uid": 697,
            "meta": {
                "name": "Saturn",
                "city": "Saturn",
                "country": "RO",
                "latitude": 43.82,
                "longitude": 28.7445
            }
        },
        {
            "domain": "ts",
            "tag": "nextbike-frydek-mistek",
            "city_uid": 700,
            "meta": {
                "name": "nextbike Fr\u00fddek-M\u00edstek",
                "city": "Fr\u00fddek-M\u00edstek",
                "country": "CZ",
                "latitude": 49.6832,
                "longitude": 18.3457
            }
        },
        {
            "domain": "tt",
            "tag": "nextbike-uherske-hradiste",
            "city_uid": 702,
            "meta": {
                "name": "nextbike Uhersk\u00e9 Hradi\u0161t\u011b",
                "city": "Uhersk\u00e9 Hradi\u0161t\u011b",
                "country": "CZ",
                "latitude": 49.0678,
                "longitude": 17.4665
            }
        },
        {
            "domain": "tv",
            "tag": "nextbike-zlin",
            "city_uid": 703,
            "meta": {
                "name": "nextbike Zl\u00edn",
                "city": "Zl\u00edn",
                "country": "CZ",
                "latitude": 49.238,
                "longitude": 17.6788
            }
        },
        {
            "domain": "tw",
            "tag": "nextbike-krnov",
            "city_uid": 707,
            "meta": {
                "name": "nextbike Krnov",
                "city": "Krnov",
                "country": "CZ",
                "latitude": 50.0703,
                "longitude": 17.8837
            }
        },
        {
            "domain": "eb",
            "tag": "eifel",
            "city_uid": 706,
            "meta": {
                "name": "Eifel e-Bike",
                "city": "Eifel e-Bike",
                "country": "DE",
                "latitude": 50.5771,
                "longitude": 6.64673
            }
        },
        {
            "domain": "tx",
            "tag": "nextbike-rychnovsko",
            "city_uid": 708,
            "meta": {
                "name": "nextbike Rychnovsko",
                "city": "Rychnovsko",
                "country": "CZ",
                "latitude": 50.1668,
                "longitude": 16.2828
            }
        },
        {
            "domain": "ty",
            "tag": "nextbike-pisek",
            "city_uid": 709,
            "meta": {
                "name": "nextbike P\u00edsek",
                "city": "P\u00edsek",
                "country": "CZ",
                "latitude": 49.3051,
                "longitude": 14.1463
            }
        },
        {
            "domain": "tz",
            "tag": "nextbike-jihlava",
            "city_uid": 719,
            "meta": {
                "name": "nextbike Jihlava",
                "city": "Jihlava",
                "country": "CZ",
                "latitude": 49.4078,
                "longitude": 15.6061
            }
        },
        {
            "domain": "cf",
            "tag": "nomago-zanaprej",
            "city_uid": 725,
            "meta": {
                "name": "Nomago Bikes - ZANAPREJ",
                "city": "Zagorje ob Savi",
                "country": "SI",
                "latitude": 46.1392,
                "longitude": 14.9785
            }
        },
        {
            "domain": "rq",
            "tag": "rower-powiatowy-sokolow-podlaski",
            "city_uid": 727,
            "meta": {
                "name": "Rower Powiatowy Soko\u0142\u00f3w Podlaski",
                "city": "Soko\u0142\u00f3w Podlaski",
                "country": "PL",
                "latitude": 52.4082,
                "longitude": 22.2525
            }
        },
        {
            "domain": "ib",
            "tag": "nextbike-bergamo",
            "city_uid": 728,
            "meta": {
                "name": "nextbike Bergamo",
                "city": "Bergamo",
                "country": "IT",
                "latitude": 45.6986,
                "longitude": 9.67567
            }
        },
        {
            "domain": "em",
            "tag": "emobi-osijek",
            "city_uid": 734,
            "meta": {
                "name": "eMobi (Croatia)",
                "city": "Osijek",
                "country": "HR",
                "latitude": 45.554,
                "longitude": 18.6943
            }
        },
        {
            "domain": "ia",
            "tag": "arval-scandicci",
            "city_uid": 746,
            "meta": {
                "name": "ARVAL",
                "city": "Scandicci",
                "country": "IT",
                "latitude": 43.7701,
                "longitude": 11.1592
            }
        },
        {
            "domain": "wo",
            "tag": "nextbike-oldenburg",
            "city_uid": 754,
            "meta": {
                "name": "OLi-Bike",
                "city": "Oldenburg",
                "country": "DE",
                "latitude": 53.1448,
                "longitude": 8.22485,
                "company":[
                    "Bremer Tageszeitungen AG"
                ]
            }
        },
        {
            "domain": "ey",
            "tag": "nextbike-urdaibai",
            "city_uid": 772,
            "meta": {
                "name": "BBK Klimabizi",
                "city": "Urdaibai",
                "country": "ES",
                "latitude": 43.395,
                "longitude": -2.68815
            }
        },
        {
            "domain": "um",
            "tag": "mvrad-hq",
            "city_uid": 775,
            "meta": {
                "name": "MV-Rad",
                "city": "MV-Rad",
                "country": "DE",
                "latitude": 53.6707,
                "longitude": 12.4255
            }
        },
        {
            "domain": "um",
            "tag": "mvrad-anklam",
            "city_uid": 787,
            "meta": {
                "name": "MV-Rad",
                "city": "Anklam",
                "country": "DE",
                "latitude": 53.8614,
                "longitude": 13.6907
            }
        },
        {
            "domain": "ug",
            "tag": "greifswald",
            "city_uid": 759,
            "meta": {
                "name": "StadtRad Greifswald",
                "city": "Greifswald (StadtRad)",
                "country": "DE",
                "latitude": 54.0961,
                "longitude": 13.3787
            }
        },
        {
            "domain": "tf",
            "tag": "nextbike-dvur-kralove",
            "city_uid": 768,
            "meta": {
                "name": "nextbike Dv\u016fr Kr\u00e1lov\u00e9",
                "city": "Dv\u016fr Kr\u00e1lov\u00e9",
                "country": "CZ",
                "latitude": 50.4278,
                "longitude": 15.8162
            }
        },
        {
            "domain": "vt",
            "tag": "vvtregiorad-kufstein",
            "city_uid": 773,
            "meta": {
                "name": "VVT REGIORAD Tirol",
                "city": "Kufstein",
                "country": "AT",
                "latitude": 47.583,
                "longitude": 12.1692
            }
        },
        {
            "domain": "vt",
            "tag": "vvtregiorad-ellmau",
            "city_uid": 774,
            "meta": {
                "name": "VVT REGIORAD Tirol",
                "city": "Ellmau",
                "country": "AT",
                "latitude": 47.5134,
                "longitude": 12.3025
            }
        },
        {
            "domain": "cw",
            "tag": "ski-rower-chelm",
            "city_uid": 776,
            "meta": {
                "name": "Che\u0142mski Rower",
                "city": "Che\u0142m",
                "country": "PL",
                "latitude": 51.1318,
                "longitude": 23.4755
            }
        },
        {
            "domain": "vr",
            "tag": "nextbike-vrchlabi",
            "city_uid": 769,
            "meta": {
                "name": "nextbike Vrchlab\u00ed",
                "city": "Vrchlab\u00ed",
                "country": "CZ",
                "latitude": 50.6222,
                "longitude": 15.6126
            }
        },
        {
            "domain": "wd",
            "tag": "winsenrad",
            "city_uid": 794,
            "meta": {
                "name": "WinsenRad",
                "city": "Winsen (Luhe)",
                "country": "DE",
                "latitude": 53.3547,
                "longitude": 10.2067
            }
        },
        {
            "domain": "cl",
            "tag": "nomago-portoroz",
            "city_uid": 806,
            "meta": {
                "name": "Nomago Bikes - PORTOROZ",
                "city": "Portoro\u017e",
                "country": "SI",
                "latitude": 45.5054,
                "longitude": 13.5979
            }
        },
        {
            "domain": "ea",
            "tag": "bicipalma",
            "city_uid": 789,
            "meta": {
                "latitude": 39.57119,
                "city": "Palma",
                "name": "Bicipalma",
                "longitude": 2.646634,
                "country": "ES"
            }
        },
        {
            "domain": "hg",
            "tag": "heraeus-hanau",
            "city_uid": 301,
            "meta": {
                "name": "Heraeus Hanau",
                "city": "Hanau",
                "country": "DE",
                "latitude": 50.1387,
                "longitude": 8.94429,
                "company":[
                    "Heraeus Holding GmbH"
                ]
            }
        },
        {
            "domain": "ol",
            "tag": "stari-grad-hvar",
            "city_uid": 745,
            "meta": {
                "name": "Hvar",
                "city": "Stari Grad",
                "country": "HR",
                "latitude": 43.1841,
                "longitude": 16.5886
            }
        },
        {
            "domain": "re",
            "tag": "revgmobic",
            "city_uid": 817,
            "meta": {
                "name": "mobic",
                "city": "REVG",
                "country": "DE",
                "latitude": 50.8493,
                "longitude": 6.6687,
                "company":[
                    "Rhein-Erft-Verkehrsgesellschaft mbH"
                ]
            }
        },
        {
            "domain": "gh",
            "tag": "westbike-erkelenz",
            "city_uid": 807,
            "meta": {
                "name": "westBike",
                "city": "Erkelenz",
                "country": "DE",
                "latitude": 51.0753,
                "longitude": 6.31233
            }
        },
        {
            "domain": "gh",
            "tag": "westbike-geilenkirchen",
            "city_uid": 808,
            "meta": {
                "name": "westBike",
                "city": "Geilenkirchen",
                "country": "DE",
                "latitude": 50.9671,
                "longitude": 6.11886
            }
        },
        {
            "domain": "gh",
            "tag": "westbike-heinsberg",
            "city_uid": 809,
            "meta": {
                "name": "westBike",
                "city": "Heinsberg",
                "country": "DE",
                "latitude": 51.0597,
                "longitude": 6.11849
            }
        },
        {
            "domain": "gh",
            "tag": "westbike-hueckelhoven",
            "city_uid": 810,
            "meta": {
                "name": "westBike",
                "city": "H\u00fcckelhoven",
                "country": "DE",
                "latitude": 51.0529,
                "longitude": 6.21933
            }
        },
        {
            "domain": "gh",
            "tag": "westbike-wegberg",
            "city_uid": 811,
            "meta": {
                "name": "westBike",
                "city": "Wegberg",
                "country": "DE",
                "latitude": 51.1427,
                "longitude": 6.2813
            }
        },
        {
            "domain": "ed",
            "tag": "edeka-gruenheide-mark",
            "city_uid": 819,
            "meta": {
                "name": "EDEKA Gr\u00fcnheide",
                "city": "Gr\u00fcnheide (Mark)",
                "country": "DE",
                "latitude": 52.4247,
                "longitude": 13.8203
            }
        },
        {
            "domain": "cd",
            "tag": "nomago-gorizia",
            "city_uid": 771,
            "meta": {
                "name": "GO2GO - Gorizia",
                "city": "Gorizia",
                "country": "IT",
                "latitude": 45.9469,
                "longitude": 13.6208
            }
        },
        {
            "domain": "mz",
            "tag": "mvg-meinrad-nextbike-mainz",
            "city_uid": 755,
            "meta": {
                "name": "meinRad MVG Mainz",
                "city": "Mainz",
                "country": "DE",
                "latitude": 45.9469,
                "longitude": 13.6208,
                "company": [
                    "Mainzer Verkehrsgesellschaft mbH"
                ]
            }
        },
        {
            "domain": "vw",
            "tag": "veturilo-nextbike-warsaw",
            "city_uid": 812,
            "meta": {
                "name": "VETURILO 3.0",
                "city": "Warsaw",
                "country": "PL",
                "latitude": 52.2581,
                "longitude": 20.9949
            }
        },
        {
            "domain": "nr",
            "tag": "nextbike-prerov",
            "city_uid": 917,
            "meta": {
                "name": "nextbike Prerov",
                "city": "Prerov",
                "country": "CZ",
                "latitude": 49.4574,
                "longitude": 17.4408
            }
        },
        {
            "domain": "ad",
            "tag": "bicimislata",
            "city_uid": 835,
            "meta": {
                "name": "BiciMislata",
                "city": "Mislata",
                "country": "ES",
                "latitude": 39.4763,
                "longitude": -0.4182,
                "company": [
                    "Movilidad Urbana Sostenible, S.L"
                ]
            }
        },
        {
            "domain": "aa",
            "tag": "biciarteixo",
            "city_uid": 874,
            "meta": {
                "name": "biciArteixo",
                "city": "Arteixo",
                "country": "ES",
                "latitude": 43.3053,
                "longitude": -8.5069,
                "company": [
                    "Servizos Urbanos Municipais de Arteixo, S. A."
                ]
            }
        },
        {
            "domain": "oy",
            "tag": "ontibici",
            "city_uid": 951,
            "meta": {
                "name": "Ontibici",
                "city": "Ontinyent",
                "country": "ES",
                "latitude": 38.8211,
                "longitude": -0.6090,
                "company": [
                    "Movilidad Urbana Sostenible S.L."
                ]
            }
        },
        {
            "domain": "ek",
            "tag": "tuebici",
            "city_uid": 914,
            "meta": {
                "name": "TUeBICI",
                "city": "Santander",
                "country": "ES",
                "latitude": 43.46230569999999,
                "longitude": -3.8099803,
                "company": [
                    "UTE BICIS SANTANDER"
                ]
            }
        },
        {
            "domain": "nh",
            "tag": "nextbike-hodonin",
            "city_uid": 1046,
            "meta": {
                "name": "nextbike Hodonín",
                "city": "Hodonín",
                "country": "CZ",
                "latitude": 48.8489,
                "longitude": 17.1327
            }
        },
        {
            "domain": "nt",
            "tag": "nextbike-jicin",
            "city_uid": 1032,
            "meta": {
                "name": "nextbike Jičín",
                "city": "Jičín",
                "country": "CZ",
                "latitude": 50.4367,
                "longitude": 15.3743
            }
        },
        {
            "domain": "kn",
            "tag": "nextbike-novy-jicin",
            "city_uid": 1045,
            "meta": {
                "name": "nextbike Nový Jičín",
                "city": "Nový Jičín",
                "country": "CZ",
                "latitude": 49.5976,
                "longitude": 18.008
            }
        },
        {
            "domain": "kn",
            "tag": "nextbike-koprivnice",
            "city_uid": 1035,
            "meta": {
                "name": "nextbike Kopřivnice",
                "city": "Kopřivnice",
                "country": "CZ",
                "latitude": 49.5934,
                "longitude": 18.1422
            }
        },
        {
            "domain": "uo",
            "tag": "nextbike-most",
            "city_uid": 1036,
            "meta": {
                "name": "nextbike Most",
                "city": "Most",
                "country": "CZ",
                "latitude": 50.5014,
                "longitude": 13.6361
            }
        },
        {
            "domain": "cu",
            "tag": "nextbike-olbramovicevotice",
            "city_uid": 1034,
            "meta": {
                "name": "nextbike OlbramoviceVotice",
                "city": "Olbramovice/Votice",
                "country": "CZ",
                "latitude": 49.6525,
                "longitude": 14.6355
            }
        },
        {
            "domain": "xb",
            "tag": "nextbike-trutnov",
            "city_uid": 792,
            "meta": {
                "name": "nextbike Trutnov",
                "city": "Trutnov",
                "country": "CZ",
                "latitude": 50.5616,
                "longitude": 15.9126
            }
        },
        {
            "domain": "rr",
            "tag": "dcs-bike",
            "city_uid": 860,
            "meta": {
                "name": "DCS Bike",
                "city": "Mannheim",
                "country": "DE",
                "latitude": 49.5346,
                "longitude": 8.47004
            }
        },
        {
            "domain": "mx",
            "tag": "movemix-bike",
            "city_uid": 943,
            "meta": {
                "name": "Movemix Bike",
                "city": "Halle (Saale)",
                "country": "DE",
                "latitude": 51.4938,
                "longitude": 11.9628
            }
        },
        {
            "domain": "we",
            "tag": "westcargo-bristol",
            "city_uid": 946,
            "meta": {
                "name": "WESTcargo Bristol",
                "city": "Bristol",
                "country": "GB",
                "latitude": 51.4587,
                "longitude": -2.57355
            }
        },
        {
            "domain": "we",
            "tag": "westcargo-bath",
            "city_uid": 947,
            "meta": {
                "name": "WESTcargo Bath",
                "city": "Bath",
                "country": "GB",
                "latitude": 51.3814,
                "longitude": -2.35519
            }
        },
        {
            "domain": "py",
            "tag": "tychowski-rower-miejski",
            "city_uid": 528,
            "meta": {
                "name": "Tychowski Rower Miejski",
                "city": "Tychowo",
                "country": "PL",
                "latitude": 53.9288,
                "longitude": 16.2568
            }
        },
        {
            "domain": "rv",
            "tag": "slatina-velo-city",
            "city_uid": 945,
            "meta": {
                "name": "Slatina Velo City",
                "city": "Slatina",
                "country": "RO",
                "latitude": 44.4299,
                "longitude": 24.3716
            }
        },
        {
            "domain": "av",
            "tag": "senica-bajk",
            "city_uid": 942,
            "meta": {
                "name": "SENICA BAJK",
                "city": "Senica",
                "country": "SK",
                "latitude": 48.676,
                "longitude": 17.3642
            }
        },
        {
            "domain": "kk",
            "tag": "mein-konrad-konstanz",
            "city_uid": 1042,
            "meta": {
                "name": "Mein konrad",
                "city": "Konstanz",
                "country": "DE",
                "latitude": 47.6732,
                "longitude": 9.1663
            }
        },
        {
            "domain": "en",
            "tag": "torrentbici",
            "city_uid": 1056,
            "meta": {
                "city": "Torrent",
                "country": "ES",
                "name": "TorrentBici",
                "latitude": 39.4319,
                "longitude": -0.4730
            }
        },
        {
            "domain": "ej",
            "tag": "bicilog",
            "city_uid": 1052,
            "meta": {
                "city": "Logroño",
                "country": "ES",
                "latitude": 42.4658,
                "longitude": -2.4402,
                "name": "BiciLog"
            }
        }
    ],
    "system": "nextbike",
    "class": "Nextbike"
}
