{
    "instances": [
        {
            "domain": "de",
            "tag": "nextbike-germany-leipzig",
            "meta": {
                "latitude": 51.3415,
                "city": "Leipzig",
                "name": "nextbike Germany",
                "longitude": 12.3625,
                "country": "DE"
            },
            "city_uid": "1"
        },
        {
            "domain": "de",
            "tag": "nextbike-germany-tubingen",
            "meta": {
                "latitude": 48.5203,
                "city": "Tübingen",
                "name": "nextbike Germany",
                "longitude": 9.05591,
                "country": "DE"
            },
            "city_uid": "101"
        },
        {
            "domain": "ch",
            "tag": "nextbike-switzerland-luzern",
            "meta": {
                "latitude": 47.0472,
                "city": "Luzern",
                "name": "nextbike Switzerland",
                "longitude": 8.30446,
                "country": "CH"
            },
            "city_uid": "126"
        },
        {
            "domain": "lv",
            "tag": "sixt-latvia-riga",
            "meta": {
                "latitude": 56.9453,
                "city": "Rīga",
                "name": "SiXT Latvia",
                "longitude": 24.1033,
                "country": "LV"
            },
            "city_uid": "128"
        },
        {
            "domain": "mr",
            "tag": "metropolradruhr-germany-dortmund",
            "meta": {
                "latitude": 51.5141,
                "city": "Dortmund",
                "name": "metropolradruhr Germany",
                "longitude": 7.46255,
                "country": "DE"
            },
            "city_uid": "129"
        },
        {
            "domain": "mr",
            "tag": "metropolradruhr-germany-bochum",
            "meta": {
                "latitude": 51.4813,
                "city": "Bochum",
                "name": "metropolradruhr Germany",
                "longitude": 7.2133,
                "country": "DE"
            },
            "city_uid": "130"
        },
        {
            "domain": "mr",
            "tag": "metropolradruhr-germany-bottrop",
            "meta": {
                "latitude": 51.5263,
                "city": "Bottrop",
                "name": "metropolradruhr Germany",
                "longitude": 6.94611,
                "country": "DE"
            },
            "city_uid": "131"
        },
        {
            "domain": "mr",
            "tag": "metropolradruhr-germany-duisburg",
            "meta": {
                "latitude": 51.4487,
                "city": "Duisburg",
                "name": "metropolradruhr Germany",
                "longitude": 6.77513,
                "country": "DE"
            },
            "city_uid": "132"
        },
        {
            "domain": "mr",
            "tag": "metropolradruhr-germany-essen",
            "meta": {
                "latitude": 51.4425,
                "city": "Essen",
                "name": "metropolradruhr Germany",
                "longitude": 7.02301,
                "country": "DE"
            },
            "city_uid": "133"
        },
        {
            "domain": "mr",
            "tag": "metropolradruhr-germany-gelsenkirchen",
            "meta": {
                "latitude": 51.5404,
                "city": "Gelsenkirchen",
                "name": "metropolradruhr Germany",
                "longitude": 7.07039,
                "country": "DE"
            },
            "city_uid": "134"
        },
        {
            "domain": "mr",
            "tag": "metropolradruhr-germany-hamm",
            "meta": {
                "latitude": 51.6775,
                "city": "Hamm",
                "name": "metropolradruhr Germany",
                "longitude": 7.84836,
                "country": "DE"
            },
            "city_uid": "135"
        },
        {
            "domain": "mr",
            "tag": "metropolradruhr-germany-herne",
            "meta": {
                "latitude": 51.5363,
                "city": "Herne",
                "name": "metropolradruhr Germany",
                "longitude": 7.21493,
                "country": "DE"
            },
            "city_uid": "136"
        },
        {
            "domain": "mr",
            "tag": "metropolradruhr-germany-mulheim-a-d-r",
            "meta": {
                "latitude": 51.4308,
                "city": "Mülheim a.d.R.",
                "name": "metropolradruhr Germany",
                "longitude": 6.87401,
                "country": "DE"
            },
            "city_uid": "137"
        },
        {
            "domain": "mr",
            "tag": "metropolradruhr-germany-oberhausen",
            "meta": {
                "latitude": 51.4936,
                "city": "Oberhausen",
                "name": "metropolradruhr Germany",
                "longitude": 6.85169,
                "country": "DE"
            },
            "city_uid": "138"
        },
        {
            "domain": "de",
            "tag": "nextbike-germany-munchen",
            "meta": {
                "latitude": 48.1392,
                "city": "München",
                "name": "nextbike Germany",
                "longitude": 11.5791,
                "country": "DE"
            },
            "city_uid": "139"
        },
        {
            "domain": "lv",
            "tag": "sixt-latvia-jurmala",
            "meta": {
                "latitude": 56.9732,
                "city": "Jūrmala",
                "name": "SiXT Latvia",
                "longitude": 23.8225,
                "country": "LV"
            },
            "city_uid": "140"
        },
        {
            "domain": "la",
            "tag": "leihradl-nextbike-austria-wachau",
            "meta": {
                "latitude": 48.3188,
                "city": "Wachau",
                "name": "LEIHRADL nextbike Austria",
                "longitude": 15.4166,
                "country": "AT"
            },
            "city_uid": "142"
        },
        {
            "domain": "la",
            "tag": "leihradl-nextbike-austria-tulln",
            "meta": {
                "latitude": 48.3269,
                "city": "Tulln",
                "name": "LEIHRADL nextbike Austria",
                "longitude": 16.0569,
                "country": "AT"
            },
            "city_uid": "143"
        },
        {
            "domain": "la",
            "tag": "leihradl-nextbike-austria-triestingtal",
            "meta": {
                "latitude": 47.9835,
                "city": "Triestingtal",
                "name": "LEIHRADL nextbike Austria",
                "longitude": 16.0812,
                "country": "AT"
            },
            "city_uid": "144"
        },
        {
            "domain": "la",
            "tag": "leihradl-nextbike-austria-thermenregion",
            "meta": {
                "latitude": 47.9892,
                "city": "Thermenregion",
                "name": "LEIHRADL nextbike Austria",
                "longitude": 16.2646,
                "country": "AT"
            },
            "city_uid": "146"
        },
        {
            "domain": "de",
            "tag": "nextbike-germany-flensburg",
            "meta": {
                "latitude": 54.7804,
                "city": "Flensburg",
                "name": "nextbike Germany",
                "longitude": 9.43571,
                "country": "DE"
            },
            "city_uid": "147"
        },
        {
            "domain": "la",
            "tag": "leihradl-nextbike-austria-romerland",
            "meta": {
                "latitude": 48.0909,
                "city": "Römerland",
                "name": "LEIHRADL nextbike Austria",
                "longitude": 16.853,
                "country": "AT"
            },
            "city_uid": "149"
        },
        {
            "domain": "la",
            "tag": "leihradl-nextbike-austria-obb-bahnhofe",
            "meta": {
                "latitude": 48.0193,
                "city": "ÖBB-Bahnhöfe",
                "name": "LEIHRADL nextbike Austria",
                "longitude": 16.3092,
                "country": "AT"
            },
            "city_uid": "150"
        },
        {
            "domain": "de",
            "tag": "nextbike-germany-offenburg",
            "meta": {
                "latitude": 48.4721,
                "city": "Offenburg",
                "name": "nextbike Germany",
                "longitude": 7.94243,
                "country": "DE"
            },
            "city_uid": "155"
        },
        {
            "domain": "la",
            "tag": "leihradl-nextbike-austria-wr-neustadt",
            "meta": {
                "latitude": 47.8221,
                "city": "Wr.Neustadt",
                "name": "LEIHRADL nextbike Austria",
                "longitude": 16.2498,
                "country": "AT"
            },
            "city_uid": "156"
        },
        {
            "domain": "de",
            "tag": "nextbike-germany-potsdam",
            "meta": {
                "latitude": 52.3997,
                "city": "Potsdam",
                "name": "nextbike Germany",
                "longitude": 13.0676,
                "country": "DE"
            },
            "city_uid": "158"
        },
        {
            "domain": "de",
            "tag": "nextbike-germany-bielefeld",
            "meta": {
                "latitude": 52.0257,
                "city": "Bielefeld",
                "name": "nextbike Germany",
                "longitude": 8.53286,
                "country": "DE"
            },
            "city_uid": "16"
        },
        {
            "domain": "de",
            "tag": "nextbike-germany-gutersloh",
            "meta": {
                "latitude": 51.9049,
                "city": "Gütersloh",
                "name": "nextbike Germany",
                "longitude": 8.39275,
                "country": "DE"
            },
            "city_uid": "160"
        },
        {
            "domain": "la",
            "tag": "leihradl-nextbike-austria-krems-ost",
            "meta": {
                "latitude": 48.4183,
                "city": "Krems Ost",
                "name": "LEIHRADL nextbike Austria",
                "longitude": 15.6909,
                "country": "AT"
            },
            "city_uid": "164"
        },
        {
            "domain": "la",
            "tag": "leihradl-nextbike-austria-unteres-traisental",
            "meta": {
                "latitude": 48.3343,
                "city": "Unteres Traisental",
                "name": "LEIHRADL nextbike Austria",
                "longitude": 15.6878,
                "country": "AT"
            },
            "city_uid": "165"
        },
        {
            "domain": "la",
            "tag": "leihradl-nextbike-austria-piestingtal",
            "meta": {
                "latitude": 47.8841,
                "city": "Piestingtal",
                "name": "LEIHRADL nextbike Austria",
                "longitude": 15.9467,
                "country": "AT"
            },
            "city_uid": "168"
        },
        {
            "domain": "la",
            "tag": "leihradl-nextbike-austria-marchfeld",
            "meta": {
                "latitude": 48.2741,
                "city": "Marchfeld",
                "name": "LEIHRADL nextbike Austria",
                "longitude": 16.7116,
                "country": "AT"
            },
            "city_uid": "170"
        },
        {
            "domain": "la",
            "tag": "leihradl-nextbike-austria-10vorwien",
            "meta": {
                "latitude": 48.3462,
                "city": "10vorWien",
                "name": "LEIHRADL nextbike Austria",
                "longitude": 16.2735,
                "country": "AT"
            },
            "city_uid": "174"
        },
        {
            "domain": "ur",
            "tag": "usedomrad-germany-usedom",
            "meta": {
                "latitude": 53.9779,
                "city": "Usedom",
                "name": "UsedomRad Germany",
                "longitude": 13.9925,
                "country": "DE"
            },
            "city_uid": "176"
        },
        {
            "domain": "de",
            "tag": "nextbike-germany-norderstedt",
            "meta": {
                "latitude": 53.6969,
                "city": "Norderstedt",
                "name": "nextbike Germany",
                "longitude": 10.002,
                "country": "DE"
            },
            "city_uid": "177"
        },
        {
            "domain": "de",
            "tag": "nextbike-germany-augsburg",
            "meta": {
                "latitude": 48.3647,
                "city": "Augsburg",
                "name": "nextbike Germany",
                "longitude": 10.8916,
                "country": "DE"
            },
            "city_uid": "178"
        },
        {
            "domain": "la",
            "tag": "leihradl-nextbike-austria-traisen-golsental",
            "meta": {
                "latitude": 47.9504,
                "city": "Traisen-Gölsental",
                "name": "LEIHRADL nextbike Austria",
                "longitude": 15.6129,
                "country": "AT"
            },
            "city_uid": "180"
        },
        {
            "domain": "la",
            "tag": "leihradl-nextbike-austria-oberes-ybbstal",
            "meta": {
                "latitude": 47.8205,
                "city": "Oberes Ybbstal",
                "name": "LEIHRADL nextbike Austria",
                "longitude": 15.0073,
                "country": "AT"
            },
            "city_uid": "181"
        },
        {
            "domain": "nk",
            "tag": "nextbike-konya-konya",
            "meta": {
                "latitude": 37.8715,
                "city": "Konya",
                "name": "nextbike Konya",
                "longitude": 32.4957,
                "country": "TR"
            },
            "city_uid": "183"
        },
        {
            "domain": "la",
            "tag": "leihradl-nextbike-austria-laa-an-der-thaya",
            "meta": {
                "latitude": 48.7196,
                "city": "Laa an der Thaya",
                "name": "LEIHRADL nextbike Austria",
                "longitude": 16.3878,
                "country": "AT"
            },
            "city_uid": "184"
        },
        {
            "domain": "la",
            "tag": "leihradl-nextbike-austria-sudheide",
            "meta": {
                "latitude": 48.1077,
                "city": "Südheide",
                "name": "LEIHRADL nextbike Austria",
                "longitude": 16.3937,
                "country": "AT"
            },
            "city_uid": "185"
        },
        {
            "domain": "cy",
            "tag": "nextbike-cyprus-limassol",
            "meta": {
                "latitude": 34.6823,
                "city": "Limassol",
                "name": "nextbike Cyprus",
                "longitude": 33.0464,
                "country": "CY"
            },
            "city_uid": "190"
        },
        {
            "domain": "nz",
            "tag": "nextbike-new-zealand-christchurch",
            "meta": {
                "latitude": -43.5341,
                "city": "Christchurch",
                "name": "nextbike New Zealand",
                "longitude": 172.621,
                "country": "NZ"
            },
            "city_uid": "193"
        },
        {
            "domain": "vn",
            "tag": "vrn-nextbike-heidelberg",
            "meta": {
                "latitude": 49.4113,
                "city": "Heidelberg",
                "name": "VRN nextbike",
                "longitude": 8.68933,
                "country": "DE"
            },
            "city_uid": "194"
        },
        {
            "domain": "vn",
            "tag": "vrn-nextbike-mannheim",
            "meta": {
                "latitude": 49.4621,
                "city": "Mannheim",
                "name": "VRN nextbike",
                "longitude": 8.49054,
                "country": "DE"
            },
            "city_uid": "195"
        },
        {
            "domain": "la",
            "tag": "leihradl-nextbike-austria-tullnerfeld-west",
            "meta": {
                "latitude": 48.2994,
                "city": "Tullnerfeld West",
                "name": "LEIHRADL nextbike Austria",
                "longitude": 15.9065,
                "country": "AT"
            },
            "city_uid": "196"
        },
        {
            "domain": "si",
            "tag": "stadtrad-innsbruck-innsbruck",
            "meta": {
                "latitude": 47.2632,
                "city": "Innsbruck",
                "name": "Stadtrad Innsbruck",
                "longitude": 11.3961,
                "country": "AT"
            },
            "city_uid": "199"
        },
        {
            "domain": "sz",
            "tag": "sz-bike-germany-dresden",
            "meta": {
                "latitude": 51.0535,
                "city": "Dresden",
                "name": "SZ-bike Germany",
                "longitude": 13.7387,
                "country": "DE"
            },
            "city_uid": "2"
        },
        {
            "domain": "de",
            "tag": "nextbike-germany-berlin",
            "meta": {
                "latitude": 52.5087,
                "city": "Berlin",
                "name": "nextbike Germany",
                "longitude": 13.3563,
                "country": "DE"
            },
            "city_uid": "20"
        },
        {
            "domain": "fg",
            "tag": "facherrad-germany-karlsruhe",
            "meta": {
                "latitude": 49.0102,
                "city": "Karlsruhe",
                "name": "Fächerrad Germany",
                "longitude": 8.41827,
                "country": "DE"
            },
            "city_uid": "21"
        },
        {
            "domain": "la",
            "tag": "leihradl-nextbike-austria-hollabrunn",
            "meta": {
                "latitude": 48.562,
                "city": "Hollabrunn",
                "name": "LEIHRADL nextbike Austria",
                "longitude": 16.0785,
                "country": "AT"
            },
            "city_uid": "212"
        },
        {
            "domain": "la",
            "tag": "leihradl-nextbike-austria-wienerwald",
            "meta": {
                "latitude": 48.1917,
                "city": "WienerWald",
                "name": "LEIHRADL nextbike Austria",
                "longitude": 16.1197,
                "country": "AT"
            },
            "city_uid": "213"
        },
        {
            "domain": "bg",
            "tag": "nextbike-bulgaria-dobrich",
            "meta": {
                "latitude": 43.567,
                "city": "Dobrich",
                "name": "nextbike Bulgaria",
                "longitude": 27.8285,
                "country": "BG"
            },
            "city_uid": "215"
        },
        {
            "domain": "me",
            "tag": "bykystations-uae-dubai",
            "meta": {
                "latitude": 25.2435,
                "city": "Dubai",
                "name": "BYKYstations UAE",
                "longitude": 55.2722,
                "country": "AE"
            },
            "city_uid": "219"
        },
        {
            "domain": "hr",
            "tag": "nextbike-croatia-zagreb",
            "meta": {
                "latitude": 45.7988,
                "city": "Zagreb",
                "name": "nextbike Croatia",
                "longitude": 15.9643,
                "country": "HR"
            },
            "city_uid": "220"
        },
        {
            "domain": "eg",
            "tag": "ebikestation-stuttgart-germany-bietigheim-bissingen",
            "meta": {
                "latitude": 48.9495,
                "city": "Bietigheim-Bissingen",
                "name": "ebikestation Stuttgart Germany",
                "longitude": 9.12518,
                "country": "DE"
            },
            "city_uid": "226"
        },
        {
            "domain": "la",
            "tag": "leihradl-nextbike-austria-neusiedlersee",
            "meta": {
                "latitude": 47.839,
                "city": "NeusiedlerSee",
                "name": "LEIHRADL nextbike Austria",
                "longitude": 16.761,
                "country": "AT"
            },
            "city_uid": "23"
        },
        {
            "domain": "me",
            "tag": "bykystations-uae-al-sharjah",
            "meta": {
                "latitude": 25.2199,
                "city": "Al Sharjah",
                "name": "BYKYstations UAE",
                "longitude": 55.2255,
                "country": "AE"
            },
            "city_uid": "233"
        },
        {
            "domain": "uk",
            "tag": "nextbike-uk-bath",
            "meta": {
                "latitude": 51.382,
                "city": "Bath",
                "name": "nextbike UK",
                "longitude": -2.36275,
                "country": "GB"
            },
            "city_uid": "236"
        },
        {
            "domain": "uk",
            "tag": "nextbike-uk-glasgow",
            "meta": {
                "latitude": 55.8589,
                "city": "Glasgow",
                "name": "nextbike UK",
                "longitude": -4.25549,
                "country": "GB"
            },
            "city_uid": "237"
        },
        {
            "domain": "bu",
            "tag": "belfastbikes-belfast",
            "meta": {
                "latitude": 54.5969,
                "city": "Belfast",
                "name": "BelfastBikes",
                "longitude": -5.92918,
                "country": "GB"
            },
            "city_uid": "238"
        },
        {
            "domain": "de",
            "tag": "nextbike-germany-friedrichshafen",
            "meta": {
                "latitude": 47.6519,
                "city": "Friedrichshafen",
                "name": "nextbike Germany",
                "longitude": 9.47837,
                "country": "DE"
            },
            "city_uid": "24"
        },
        {
            "domain": "uk",
            "tag": "nextbike-uk-stirling",
            "meta": {
                "latitude": 56.1165,
                "city": "Stirling",
                "name": "nextbike UK",
                "longitude": -3.9369,
                "country": "GB"
            },
            "city_uid": "243"
        },
        {
            "domain": "bc",
            "tag": "bike-point-sibenik-sibenik",
            "meta": {
                "latitude": 43.733,
                "city": "Šibenik",
                "name": "Bike Point Sibenik",
                "longitude": 15.8982,
                "country": "HR"
            },
            "city_uid": "248"
        },
        {
            "domain": "tr",
            "tag": "karbis-turkey-seferihisar",
            "meta": {
                "latitude": 38.1962,
                "city": "Seferihisar",
                "name": "KARBIS Turkey",
                "longitude": 26.8386,
                "country": "TR"
            },
            "city_uid": "249"
        },
        {
            "domain": "ln",
            "tag": "lrm-lublin-poland-lublin",
            "meta": {
                "latitude": 51.2597,
                "city": "Lublin",
                "name": "LRM Lublin Poland",
                "longitude": 22.5658,
                "country": "PL"
            },
            "city_uid": "251"
        },
        {
            "domain": "eg",
            "tag": "ebikestation-stuttgart-germany-schwieberdingen",
            "meta": {
                "latitude": 48.8723,
                "city": "Schwieberdingen",
                "name": "ebikestation Stuttgart Germany",
                "longitude": 9.07419,
                "country": "DE"
            },
            "city_uid": "253"
        },
        {
            "domain": "pp",
            "tag": "healthy-ride-pittsburgh-pittsburgh",
            "meta": {
                "latitude": 40.4459,
                "city": "Pittsburgh",
                "name": "Healthy Ride Pittsburgh",
                "longitude": -79.9945,
                "country": "US"
            },
            "city_uid": "254"
        },
        {
            "domain": "gp",
            "tag": "grm-grodzisk-poland-grodzisk-mazowiecki",
            "meta": {
                "latitude": 52.113,
                "city": "Grodzisk Mazowiecki",
                "name": "GRM Grodzisk Poland",
                "longitude": 20.6265,
                "country": "PL"
            },
            "city_uid": "255"
        },
        {
            "domain": "de",
            "tag": "nextbike-germany-quickborn",
            "meta": {
                "latitude": 53.7333,
                "city": "Quickborn",
                "name": "nextbike Germany",
                "longitude": 9.90272,
                "country": "DE"
            },
            "city_uid": "256"
        },
        {
            "domain": "nj",
            "tag": "hudsonbikeshare-hoboken",
            "meta": {
                "latitude": 40.7447,
                "city": "Hoboken",
                "name": "Hudsonbikeshare",
                "longitude": -74.0341,
                "country": "US"
            },
            "city_uid": "258"
        },
        {
            "domain": "nz",
            "tag": "nextbike-new-zealand-cambridge",
            "meta": {
                "latitude": -37.8914,
                "city": "Cambridge",
                "name": "nextbike New Zealand",
                "longitude": 175.472,
                "country": "NZ"
            },
            "city_uid": "261"
        },
        {
            "domain": "sa",
            "tag": "ibike-saudi-arabia-king-abdullah-economic-city",
            "meta": {
                "latitude": 22.3113,
                "city": "King Abdullah Economic City",
                "name": "iBike ( Saudi Arabia )",
                "longitude": 39.1031,
                "country": "SA"
            },
            "city_uid": "264"
        },
        {
            "domain": "vn",
            "tag": "vrn-nextbike-ludwigshafen",
            "meta": {
                "latitude": 49.4741,
                "city": "Ludwigshafen",
                "name": "VRN nextbike",
                "longitude": 8.43287,
                "country": "DE"
            },
            "city_uid": "266"
        },
        {
            "domain": "eg",
            "tag": "ebikestation-stuttgart-germany-waiblingen",
            "meta": {
                "latitude": 48.8333,
                "city": "Waiblingen",
                "name": "ebikestation Stuttgart Germany",
                "longitude": 9.31667,
                "country": "DE"
            },
            "city_uid": "267"
        },
        {
            "domain": "vn",
            "tag": "vrn-nextbike-speyer",
            "meta": {
                "latitude": 49.3126,
                "city": "Speyer",
                "name": "VRN nextbike",
                "longitude": 8.45295,
                "country": "DE"
            },
            "city_uid": "278"
        },
        {
            "domain": "de",
            "tag": "nextbike-germany-wurzburg",
            "meta": {
                "latitude": 49.8,
                "city": "Würzburg",
                "name": "nextbike Germany",
                "longitude": 9.93333,
                "country": "DE"
            },
            "city_uid": "281"
        },
        {
            "domain": "wb",
            "tag": "skybike-west-palm-beach-west-palm-beach-florida",
            "meta": {
                "latitude": 26.7125,
                "city": "West Palm Beach Florida",
                "name": "Skybike West Palm Beach",
                "longitude": -80.0821,
                "country": "US"
            },
            "city_uid": "283"
        },
        {
            "domain": "at",
            "tag": "nextbike-tirol-serfaus",
            "meta": {
                "latitude": 47.0387,
                "city": "Serfaus",
                "name": "nextbike Tirol",
                "longitude": 10.6048,
                "country": "AT"
            },
            "city_uid": "286"
        },
        {
            "domain": "eg",
            "tag": "ebikestation-stuttgart-germany-vaihingen-an-der-enz",
            "meta": {
                "latitude": 48.9334,
                "city": "Vaihingen an der Enz",
                "name": "ebikestation Stuttgart Germany",
                "longitude": 8.96121,
                "country": "DE"
            },
            "city_uid": "287"
        },
        {
            "domain": "eg",
            "tag": "ebikestation-stuttgart-germany-herrenberg",
            "meta": {
                "latitude": 48.595,
                "city": "Herrenberg",
                "name": "ebikestation Stuttgart Germany",
                "longitude": 8.86716,
                "country": "DE"
            },
            "city_uid": "288"
        },
        {
            "domain": "hr",
            "tag": "nextbike-croatia-gospic",
            "meta": {
                "latitude": 44.5469,
                "city": "Gospić",
                "name": "nextbike Croatia",
                "longitude": 15.375,
                "country": "HR"
            },
            "city_uid": "291"
        },
        {
            "domain": "rg",
            "tag": "rower-gminny-poland-juchnowiec-koscielny",
            "meta": {
                "latitude": 53.0928,
                "city": "Juchnowiec Kościelny",
                "name": "ROWER GMINNY Poland",
                "longitude": 23.1204,
                "country": "PL"
            },
            "city_uid": "300"
        },
        {
            "domain": "kc",
            "tag": "karlovac-karlovac",
            "meta": {
                "latitude": 45.4905,
                "city": "Karlovac",
                "name": "Karlovac",
                "longitude": 15.5503,
                "country": "HR"
            },
            "city_uid": "305"
        },
        {
            "domain": "ks",
            "tag": "flashfleet-kent-state-university-kent-state-university",
            "meta": {
                "latitude": 41.1491,
                "city": "Kent State University",
                "name": "Flashfleet Kent State University",
                "longitude": -81.3415,
                "country": "US"
            },
            "city_uid": "306"
        },
        {
            "domain": "de",
            "tag": "nextbike-germany-offenbach-am-main",
            "meta": {
                "latitude": 50.1093,
                "city": "Offenbach am Main",
                "name": "nextbike Germany",
                "longitude": 8.73825,
                "country": "DE"
            },
            "city_uid": "32"
        },
        {
            "domain": "nz",
            "tag": "nextbike-new-zealand-auckland",
            "meta": {
                "latitude": -36.8603,
                "city": "Auckland",
                "name": "nextbike New Zealand",
                "longitude": 174.763,
                "country": "NZ"
            },
            "city_uid": "34"
        },
        {
            "domain": "de",
            "tag": "nextbike-germany-magdeburg",
            "meta": {
                "latitude": 52.1268,
                "city": "Magdeburg",
                "name": "nextbike Germany",
                "longitude": 11.6342,
                "country": "DE"
            },
            "city_uid": "42"
        },
        {
            "domain": "de",
            "tag": "nextbike-germany-hamburg",
            "meta": {
                "latitude": 53.5506,
                "city": "Hamburg",
                "name": "nextbike Germany",
                "longitude": 9.99052,
                "country": "DE"
            },
            "city_uid": "43"
        },
        {
            "domain": "de",
            "tag": "nextbike-germany-dusseldorf",
            "meta": {
                "latitude": 51.2243,
                "city": "Düsseldorf",
                "name": "nextbike Germany",
                "longitude": 6.77204,
                "country": "DE"
            },
            "city_uid": "50"
        },
        {
            "domain": "la",
            "tag": "leihradl-nextbike-austria-st-polten",
            "meta": {
                "latitude": 48.2058,
                "city": "St.Pölten",
                "name": "LEIHRADL nextbike Austria",
                "longitude": 15.6232,
                "country": "AT"
            },
            "city_uid": "57"
        },
        {
            "domain": "nb",
            "tag": "norisbike-germany-nurnberg",
            "meta": {
                "latitude": 49.4479,
                "city": "Nürnberg",
                "name": "NorisBike Germany",
                "longitude": 11.0814,
                "country": "DE"
            },
            "city_uid": "6"
        },
        {
            "domain": "la",
            "tag": "leihradl-nextbike-austria-modling",
            "meta": {
                "latitude": 48.1047,
                "city": "Mödling",
                "name": "LEIHRADL nextbike Austria",
                "longitude": 16.3202,
                "country": "AT"
            },
            "city_uid": "64"
        },
        {
            "domain": "de",
            "tag": "nextbike-germany-frankfurt",
            "meta": {
                "latitude": 50.1072,
                "city": "Frankfurt",
                "name": "nextbike Germany",
                "longitude": 8.66375,
                "country": "DE"
            },
            "city_uid": "8"
        },
        {
            "domain": "de",
            "tag": "nextbike-germany-hannover",
            "meta": {
                "latitude": 52.3721,
                "city": "Hannover",
                "name": "nextbike Germany",
                "longitude": 9.73569,
                "country": "DE"
            },
            "city_uid": "87"
        },
        {
            "domain": "ch",
            "tag": "nextbike-switzerland-sursee",
            "meta": {
                "latitude": 47.1713,
                "city": "Sursee",
                "name": "nextbike Switzerland",
                "longitude": 8.10877,
                "country": "CH"
            },
            "city_uid": "88"
        },
        {
            "domain": "mb", 
            "tag": "bubi", 
            "meta": {
                "latitude": 47.497912, 
                "city": "Budapest", 
                "name": "MOL Bubi", 
                "longitude": 19.040235, 
                "country": "HU"
            }, 
            "city_uid": 228
        },
        {
            "domain": "kg",
            "tag": "kvb-rad",
            "meta": {
                "latitude": 50.9364,
                "city": "Köln",
                "name": "KVB Rad",
                "longitude": 6.96053,
                "country": "DE"
            },
            "city_uid": 14
        },
        {
            "domain": "pl",
            "tag": "wroclawski-rower-miejski",
            "meta": {
                "name": "Wrocławski Rower Miejski",
                "latitude": 51.1097,
                "longitude": 17.0485,
                "country": "PL",
                "city": "Wrocław"
            },
            "city_uid": 148
        },
        {
            "domain": "bb",
            "tag": "bemowo-bike",
            "meta": {
                "name": "Bemowo Bike",
                "latitude": 52.2606,
                "longitude": 20.929,
                "country": "PL",
                "city": "Warszawa"
            },
            "city_uid": 197
        },
        {
            "domain": "pb",
            "tag": "poznanski-rower-miejski",
            "meta": {
                "name": "Poznański Rower Miejski",
                "latitude": 52.4116,
                "longitude": 16.9258,
                "country": "PL",
                "city": "Poznań"
            },
            "city_uid": 192
        },
        {
            "domain": "ob",
            "tag": "opole-bike",
            "meta": {
                "name": "Opole Bike",
                "latitude": 50.6645,
                "longitude": 17.9276,
                "country": "PL",
                "city": "Opole"
            },
            "city_uid": 202
        },
        {
            "domain": "vp",
            "tag": "veturilo",
            "meta": {
                "name": "VETURILO",
                "latitude": 52.2345,
                "longitude": 21.0024,
                "country": "PL",
                "city": "Warszawa"
            },
            "city_uid": 210
        },
        {
            "domain": "tp",
            "tag": "rower-trojmiejski",
            "meta": {
                "name": "Rower Trójmiejski",
                "latitude": 54.4349,
                "longitude": 18.6026,
                "country": "PL",
                "city": "Trójmiasto"
            },
            "city_uid": 227
        },
        {
            "domain": "kp",
            "tag": "kmk-bike",
            "meta": {
                "name": "KMK Bike",
                "latitude": 50.0395,
                "longitude": 19.9374,
                "country": "PL",
                "city": "Kraków"
            },
            "city_uid": 232
        },
        {
            "domain": "bp",
            "tag": "biker-bialystok",
            "meta": {
                "name": "BiKeR Białystok",
                "latitude": 53.1299,
                "longitude": 23.1564,
                "country": "PL",
                "city": "Białystok"
            },
            "city_uid": 245
        },
        {
            "domain": "op",
            "tag": "konstancinski-rower-miejski",
            "meta": {
                "name": "Konstanciński Rower Miejski",
                "latitude": 52.0879,
                "longitude": 21.1075,
                "country": "PL",
                "city": "Konstancin"
            },
            "city_uid": 247
        },
        {
            "domain": "kw",
            "tag": "city-by-bike",
            "meta": {
                "name": "City By Bike",
                "latitude": 50.2534,
                "longitude": 19.0266,
                "country": "PL",
                "city": "Katowice"
            },
            "city_uid": 282
        }
    ],
    "system": "nextbike", 
    "class": "Nextbike"
}
