{
    "instances": [
        {
            "domain": "le",
            "tag": "nextbike-leipzig",
            "city_uid": 1,
            "meta": {
                "city": "Leipzig",
                "country": "DE",
                "latitude": 51.3415,
                "longitude": 12.3625
            }
        },
        {
            "domain": "dx",
            "tag": "mobibike-dresden",
            "city_uid": 685,
            "meta": {
                "name": "MOBIbike",
                "city": "Dresden",
                "country": "DE",
                "latitude": 51.0535,
                "longitude": 13.7387
            }
        },
        {
            "domain": "wn",
            "tag": "nextbike-wiesbaden",
            "city_uid": 7,
            "meta": {
                "city": "Wiesbaden",
                "country": "DE",
                "latitude": 50.0709,
                "longitude": 8.24322
            }
        },
        {
            "domain": "ff",
            "tag": "visa-frankfurt",
            "city_uid": 8,
            "meta": {
                "name": "VISA",
                "city": "Frankfurt",
                "country": "DE",
                "latitude": 50.1072,
                "longitude": 8.66375
            }
        },
        {
            "domain": "kg",
            "tag": "kvb-rad-koln",
            "city_uid": 14,
            "meta": {
                "name": "KVB Rad",
                "city": "Köln",
                "country": "DE",
                "latitude": 50.9429,
                "longitude": 6.95649
            }
        },
        {
            "domain": "fg",
            "tag": "facherrad-karlsruhe",
            "city_uid": 21,
            "meta": {
                "name": "Fächerrad",
                "city": "Karlsruhe",
                "country": "DE",
                "latitude": 49.0102,
                "longitude": 8.41827
            }
        },
        {
            "domain": "na",
            "tag": "burgenland-neusiedler-see",
            "city_uid": 23,
            "meta": {
                "name": "Burgenland",
                "city": "Neusiedler See",
                "country": "AT",
                "latitude": 47.839,
                "longitude": 16.761
            }
        },
        {
            "domain": "dd",
            "tag": "nextbike-dusseldorf",
            "city_uid": 50,
            "meta": {
                "city": "Düsseldorf",
                "country": "DE",
                "latitude": 51.2243,
                "longitude": 6.77204
            }
        },
        {
            "domain": "la",
            "tag": "nextbike-stpolten",
            "city_uid": 57,
            "meta": {
                "city": "St.Pölten",
                "country": "AT",
                "latitude": 48.2058,
                "longitude": 15.6232
            }
        },
        {
            "domain": "la",
            "tag": "nextbike-modling",
            "city_uid": 64,
            "meta": {
                "city": "Mödling",
                "country": "AT",
                "latitude": 48.1047,
                "longitude": 16.3202
            }
        },
        {
            "domain": "ch",
            "tag": "nextbike-sursee",
            "city_uid": 88,
            "meta": {
                "city": "Sursee",
                "country": "CH",
                "latitude": 47.1713,
                "longitude": 8.10877
            }
        },
        {
            "domain": "ch",
            "tag": "nextbike-luzern",
            "city_uid": 126,
            "meta": {
                "city": "Luzern",
                "country": "CH",
                "latitude": 47.0472,
                "longitude": 8.30446
            }
        },
        {
            "domain": "lv",
            "tag": "sixt-riga",
            "city_uid": 128,
            "meta": {
                "name": "SiXT",
                "city": "Rīga",
                "country": "LV",
                "latitude": 56.9453,
                "longitude": 24.1033
            }
        },
        {
            "domain": "mr",
            "tag": "metropolradruhr-dortmund",
            "city_uid": 129,
            "meta": {
                "name": "metropolradruhr",
                "city": "Dortmund",
                "country": "DE",
                "latitude": 51.5141,
                "longitude": 7.46255
            }
        },
        {
            "domain": "ms",
            "tag": "metropolradruhr-bochum",
            "city_uid": 130,
            "meta": {
                "name": "metropolradruhr",
                "city": "Bochum",
                "country": "DE",
                "latitude": 51.4813,
                "longitude": 7.2133
            }
        },
        {
            "domain": "mr",
            "tag": "metropolradruhr-bottrop",
            "city_uid": 131,
            "meta": {
                "name": "metropolradruhr",
                "city": "Bottrop",
                "country": "DE",
                "latitude": 51.5263,
                "longitude": 6.94611
            }
        },
        {
            "domain": "mr",
            "tag": "metropolradruhr-duisburg",
            "city_uid": 132,
            "meta": {
                "name": "metropolradruhr",
                "city": "Duisburg",
                "country": "DE",
                "latitude": 51.4487,
                "longitude": 6.77513
            }
        },
        {
            "domain": "mr",
            "tag": "metropolradruhr-essen",
            "city_uid": 133,
            "meta": {
                "name": "metropolradruhr",
                "city": "Essen",
                "country": "DE",
                "latitude": 51.4425,
                "longitude": 7.02301
            }
        },
        {
            "domain": "mr",
            "tag": "metropolradruhr-gelsenkirchen",
            "city_uid": 134,
            "meta": {
                "name": "metropolradruhr",
                "city": "Gelsenkirchen",
                "country": "DE",
                "latitude": 51.5404,
                "longitude": 7.07039
            }
        },
        {
            "domain": "mr",
            "tag": "metropolradruhr-hamm",
            "city_uid": 135,
            "meta": {
                "name": "metropolradruhr",
                "city": "Hamm",
                "country": "DE",
                "latitude": 51.6775,
                "longitude": 7.84836
            }
        },
        {
            "domain": "mr",
            "tag": "metropolradruhr-herne",
            "city_uid": 136,
            "meta": {
                "name": "metropolradruhr",
                "city": "Herne",
                "country": "DE",
                "latitude": 51.5363,
                "longitude": 7.21493
            }
        },
        {
            "domain": "mr",
            "tag": "metropolradruhr-mulheim-adr",
            "city_uid": 137,
            "meta": {
                "name": "metropolradruhr",
                "city": "Mülheim a.d.R.",
                "country": "DE",
                "latitude": 51.4308,
                "longitude": 6.87401
            }
        },
        {
            "domain": "mr",
            "tag": "metropolradruhr-oberhausen",
            "city_uid": 138,
            "meta": {
                "name": "metropolradruhr",
                "city": "Oberhausen",
                "country": "DE",
                "latitude": 51.4936,
                "longitude": 6.85169
            }
        },
        {
            "domain": "la",
            "tag": "nextbike-wachau",
            "city_uid": 142,
            "meta": {
                "city": "Wachau",
                "country": "AT",
                "latitude": 48.3188,
                "longitude": 15.4166
            }
        },
        {
            "domain": "la",
            "tag": "nextbike-tulln",
            "city_uid": 143,
            "meta": {
                "city": "Tulln",
                "country": "AT",
                "latitude": 48.3269,
                "longitude": 16.0569
            }
        },
        {
            "domain": "la",
            "tag": "nextbike-thermenregion",
            "city_uid": 146,
            "meta": {
                "city": "Thermenregion",
                "country": "AT",
                "latitude": 47.9892,
                "longitude": 16.2646
            }
        },
        {
            "domain": "pl",
            "tag": "wrm-wroclaw",
            "city_uid": 148,
            "meta": {
                "name": "WRM",
                "city": "Wrocław",
                "country": "PL",
                "latitude": 51.1097,
                "longitude": 17.0485
            }
        },
        {
            "domain": "dl",
            "tag": "nextbike-offenburg",
            "city_uid": 155,
            "meta": {
                "city": "Offenburg",
                "country": "DE",
                "latitude": 48.4721,
                "longitude": 7.94243
            }
        },
        {
            "domain": "la",
            "tag": "nextbike-wrneustadt",
            "city_uid": 156,
            "meta": {
                "city": "Wr.Neustadt",
                "country": "AT",
                "latitude": 47.8167,
                "longitude": 16.2426
            }
        },
        {
            "domain": "dc",
            "tag": "nextbike-potsdam",
            "city_uid": 158,
            "meta": {
                "city": "Potsdam",
                "country": "DE",
                "latitude": 52.3997,
                "longitude": 13.0676
            }
        },
        {
            "domain": "dj",
            "tag": "nextbike-gutersloh",
            "city_uid": 160,
            "meta": {
                "city": "Gütersloh",
                "country": "DE",
                "latitude": 51.9049,
                "longitude": 8.39275
            }
        },
        {
            "domain": "la",
            "tag": "nextbike-10vorwien",
            "city_uid": 174,
            "meta": {
                "city": "10vorWien",
                "country": "AT",
                "latitude": 48.3403,
                "longitude": 16.279
            }
        },
        {
            "domain": "ur",
            "tag": "usedomrad-usedom",
            "city_uid": 176,
            "meta": {
                "name": "UsedomRad",
                "city": "Usedom",
                "country": "DE",
                "latitude": 53.9779,
                "longitude": 13.9925
            }
        },
        {
            "domain": "nn",
            "tag": "nextbike-norderstedt",
            "city_uid": 177,
            "meta": {
                "city": "Norderstedt",
                "country": "DE",
                "latitude": 53.6969,
                "longitude": 10.002
            }
        },
        {
            "domain": "ag",
            "tag": "swa-rad-augsburg",
            "city_uid": 178,
            "meta": {
                "name": "SWA Rad",
                "city": "Augsburg",
                "country": "DE",
                "latitude": 48.3647,
                "longitude": 10.8916
            }
        },
        {
            "domain": "cy",
            "tag": "nextbike-limassol",
            "city_uid": 190,
            "meta": {
                "city": "Limassol",
                "country": "CY",
                "latitude": 34.6823,
                "longitude": 33.0464
            }
        },
        {
            "domain": "pb",
            "tag": "prm-poznan",
            "city_uid": 192,
            "meta": {
                "name": "PRM",
                "city": "Poznań",
                "country": "PL",
                "latitude": 52.4077,
                "longitude": 16.9323
            }
        },
        {
            "domain": "nz",
            "tag": "nextbike-christchurch",
            "city_uid": 193,
            "meta": {
                "city": "Christchurch",
                "country": "NZ",
                "latitude": -43.5341,
                "longitude": 172.621
            }
        },
        {
            "domain": "vn",
            "tag": "vrn-heidelberg",
            "city_uid": 194,
            "meta": {
                "name": "VRN",
                "city": "Heidelberg",
                "country": "DE",
                "latitude": 49.4023,
                "longitude": 8.67577
            }
        },
        {
            "domain": "vn",
            "tag": "vrn-mannheim",
            "city_uid": 195,
            "meta": {
                "name": "VRN",
                "city": "Mannheim",
                "country": "DE",
                "latitude": 49.4869,
                "longitude": 8.45638
            }
        },
        {
            "domain": "si",
            "tag": "stadtrad-innsbruck",
            "city_uid": 199,
            "meta": {
                "name": "Stadtrad",
                "city": "Innsbruck",
                "country": "AT",
                "latitude": 47.2632,
                "longitude": 11.3961
            }
        },
        {
            "domain": "cy",
            "tag": "nextbike-nicosia",
            "city_uid": 206,
            "meta": {
                "city": "Nicosia",
                "country": "CY",
                "latitude": 35.1728,
                "longitude": 33.3653
            }
        },
        {
            "domain": "vp",
            "tag": "veturilo-warszawa",
            "city_uid": 210,
            "meta": {
                "name": "VETURILO",
                "city": "Warszawa",
                "country": "PL",
                "latitude": 52.2265,
                "longitude": 21.0127
            }
        },
        {
            "domain": "la",
            "tag": "nextbike-hollabrunn",
            "city_uid": 212,
            "meta": {
                "city": "Hollabrunn",
                "country": "AT",
                "latitude": 48.562,
                "longitude": 16.0785
            }
        },
        {
            "domain": "la",
            "tag": "nextbike-wienerwald",
            "city_uid": 213,
            "meta": {
                "city": "WienerWald",
                "country": "AT",
                "latitude": 48.1926,
                "longitude": 16.141
            }
        },
        {
            "domain": "hr",
            "tag": "nextbike-zagreb",
            "city_uid": 220,
            "meta": {
                "city": "Zagreb",
                "country": "HR",
                "latitude": 45.7984,
                "longitude": 15.9789
            }
        },
        {
            "domain": "gg",
            "tag": "nextbike-glasgow",
            "city_uid": 237,
            "meta": {
                "city": "Glasgow",
                "country": "GB",
                "latitude": 55.8589,
                "longitude": -4.25549
            }
        },
        {
            "domain": "bu",
            "tag": "belfastbikes-belfast",
            "city_uid": 238,
            "meta": {
                "name": "BelfastBikes",
                "city": "Belfast",
                "country": "GB",
                "latitude": 54.5969,
                "longitude": -5.92918
            }
        },
        {
            "domain": "uk",
            "tag": "nextbike-stirling",
            "city_uid": 243,
            "meta": {
                "city": "Stirling",
                "country": "GB",
                "latitude": 56.1165,
                "longitude": -3.9369
            }
        },
        {
            "domain": "bc",
            "tag": "grad-sibenik-sibenik",
            "city_uid": 248,
            "meta": {
                "name": "Grad Šibenik",
                "city": "Šibenik",
                "country": "HR",
                "latitude": 43.733,
                "longitude": 15.8982
            }
        },
        {
            "domain": "ln",
            "tag": "lrm-lublin-lublin",
            "city_uid": 251,
            "meta": {
                "name": "LRM Lublin",
                "city": "Lublin",
                "country": "PL",
                "latitude": 51.2469,
                "longitude": 22.5697
            }
        },
        {
            "domain": "pp",
            "tag": "healthy-ride-pittsburgh-pittsburgh",
            "city_uid": 254,
            "meta": {
                "name": "Healthy Ride",
                "city": "Pittsburgh",
                "country": "US",
                "latitude": 40.4459,
                "longitude": -79.9945
            }
        },
        {
            "domain": "gp",
            "tag": "grm-grodzisk-grodzisk-mazowiecki",
            "city_uid": 255,
            "meta": {
                "name": "GRM Grodzisk",
                "city": "Grodzisk Mazowiecki",
                "country": "PL",
                "latitude": 52.113,
                "longitude": 20.6265
            }
        },
        {
            "domain": "dq",
            "tag": "nextbike-quickborn",
            "city_uid": 256,
            "meta": {
                "city": "Quickborn",
                "country": "DE",
                "latitude": 53.7333,
                "longitude": 9.90272
            }
        },
        {
            "domain": "vn",
            "tag": "vrn-ludwigshafen",
            "city_uid": 266,
            "meta": {
                "name": "VRN",
                "city": "Ludwigshafen",
                "country": "DE",
                "latitude": 49.4741,
                "longitude": 8.43287
            }
        },
        {
            "domain": "vn",
            "tag": "vrn-speyer",
            "city_uid": 278,
            "meta": {
                "name": "VRN",
                "city": "Speyer",
                "country": "DE",
                "latitude": 49.3126,
                "longitude": 8.45295
            }
        },
        {
            "domain": "nu",
            "tag": "nextbike-lviv",
            "city_uid": 280,
            "meta": {
                "city": "Lviv",
                "country": "UA",
                "latitude": 49.8402,
                "longitude": 24.0182
            }
        },
        {
            "domain": "nu",
            "tag": "nextbike-ivano-frankivsk",
            "city_uid": 525,
            "meta": {
                "city": "Ivano Frankivsk",
                "country": "UA",
                "latitude": 48.9281,
                "longitude": 24.7103
            }
        },
        {
            "domain": "dt",
            "tag": "nextbike-wurzburg",
            "city_uid": 281,
            "meta": {
                "city": "Würzburg",
                "country": "DE",
                "latitude": 49.8,
                "longitude": 9.93333
            }
        },
        {
            "domain": "ta",
            "tag": "nextbike-serfaus",
            "city_uid": 286,
            "meta": {
                "city": "Serfaus",
                "country": "AT",
                "latitude": 47.0387,
                "longitude": 10.6048
            }
        },
        {
            "domain": "mt",
            "tag": "nextbike-malta",
            "city_uid": 302,
            "meta": {
                "city": "Malta",
                "country": "MT",
                "latitude": 35.9192,
                "longitude": 14.4889
            }
        },
        {
            "domain": "kc",
            "tag": "grad-karlovac-karlovac",
            "city_uid": 305,
            "meta": {
                "name": "Grad Karlovac",
                "city": "Karlovac",
                "country": "HR",
                "latitude": 45.4905,
                "longitude": 15.5503
            }
        },
        {
            "domain": "sb",
            "tag": "grad-slavonski-brod-slavonski-brod",
            "city_uid": 308,
            "meta": {
                "name": "Grad Slavonski Brod",
                "city": "Slavonski Brod",
                "country": "HR",
                "latitude": 45.1656,
                "longitude": 18.0183
            }
        },
        {
            "domain": "ku",
            "tag": "santander-cycles-mk-milton-keynes",
            "city_uid": 320,
            "meta": {
                "name": "Santander Cycles MK",
                "city": "Milton Keynes",
                "country": "GB",
                "latitude": 52.0406,
                "longitude": -0.759417
            }
        },
        {
            "domain": "ch",
            "tag": "nextbike-hergiswil",
            "city_uid": 323,
            "meta": {
                "city": "Hergiswil",
                "country": "CH",
                "latitude": 46.9905,
                "longitude": 8.30829
            }
        },
        {
            "domain": "ma",
            "tag": "grad-makarska-makarska",
            "city_uid": 324,
            "meta": {
                "name": "Grad Makarska",
                "city": "Makarska",
                "country": "HR",
                "latitude": 43.2992,
                "longitude": 17.0184
            }
        },
        {
            "domain": "br",
            "tag": "opcina-brinje-brinje",
            "city_uid": 325,
            "meta": {
                "name": "Općina Brinje",
                "city": "Brinje",
                "country": "HR",
                "latitude": 44.9977,
                "longitude": 15.1258
            }
        },
        {
            "domain": "zd",
            "tag": "grad-zadar-zadar",
            "city_uid": 327,
            "meta": {
                "name": "Grad Zadar",
                "city": "Zadar",
                "country": "HR",
                "latitude": 44.0058,
                "longitude": 15.2183
            }
        },
        {
            "domain": "vn",
            "tag": "vrn-bensheim",
            "city_uid": 332,
            "meta": {
                "name": "VRN",
                "city": "Bensheim",
                "country": "DE",
                "latitude": 49.6803,
                "longitude": 8.6189
            }
        },
        {
            "domain": "ig",
            "tag": "grad-ivanic-grad-ivanic-grad",
            "city_uid": 337,
            "meta": {
                "name": "Grad Ivanić-Grad",
                "city": "Ivanic Grad",
                "country": "HR",
                "latitude": 45.7062,
                "longitude": 16.3919
            }
        },
        {
            "domain": "sp",
            "tag": "bike-s-srm-szczecin",
            "city_uid": 346,
            "meta": {
                "name": "Bike_S SRM",
                "city": "Szczecin",
                "country": "PL",
                "latitude": 53.4301,
                "longitude": 14.5498
            }
        },
        {
            "domain": "ba",
            "tag": "nextbike-sarajevo",
            "city_uid": 350,
            "meta": {
                "city": "Sarajevo",
                "country": "BA",
                "latitude": 43.85,
                "longitude": 18.39
            }
        },
        {
            "domain": "eu",
            "tag": "co-bikes-exeter",
            "city_uid": 354,
            "meta": {
                "name": "Co-bikes",
                "city": "Exeter",
                "country": "GB",
                "latitude": 50.7272,
                "longitude": -3.53605
            }
        },
        {
            "domain": "nz",
            "tag": "nextbike-auckland-waterfront",
            "city_uid": 361,
            "meta": {
                "city": "Auckland Waterfront",
                "country": "NZ",
                "latitude": -36.841,
                "longitude": 174.763
            }
        },
        {
            "domain": "bn",
            "tag": "nextbike-berlin",
            "city_uid": 362,
            "meta": {
                "city": "Berlin",
                "country": "DE",
                "latitude": 52.5087,
                "longitude": 13.3563
            }
        },
        {
            "domain": "vp",
            "tag": "veturilo-stacje-sponsorskie-nextbike-veturilo",
            "city_uid": 372,
            "meta": {
                "name": "Stacje Sponsorskie Nextbike Veturilo",
                "city": "Warszawa",
                "country": "PL",
                "latitude": 52.2265,
                "longitude": 21.0127
            }
        },
        {
            "domain": "bl",
            "tag": "bike4all-byblos",
            "city_uid": 375,
            "meta": {
                "name": "bike4all",
                "city": "Byblos",
                "country": "LB",
                "latitude": 34.1236,
                "longitude": 35.6511
            }
        },
        {
            "domain": "bi",
            "tag": "chartered-bike-bhopal-bhopal",
            "city_uid": 376,
            "meta": {
                "name": "Chartered Bike",
                "city": "Bhopal",
                "country": "IN",
                "latitude": 23.2467,
                "longitude": 77.411
            }
        },
        {
            "domain": "wk",
            "tag": "wk-bike-bremen-bremen",
            "city_uid": 379,
            "meta": {
                "name": "WK-Bike",
                "city": "Bremen",
                "country": "DE",
                "latitude": 53.0781,
                "longitude": 8.80132
            }
        },
        {
            "domain": "vn",
            "tag": "vrn-worms",
            "city_uid": 382,
            "meta": {
                "name": "VRN",
                "city": "Worms",
                "country": "DE",
                "latitude": 49.6394,
                "longitude": 8.34618
            }
        },
        {
            "domain": "ch",
            "tag": "nextbike-stans",
            "city_uid": 383,
            "meta": {
                "city": "Stans",
                "country": "CH",
                "latitude": 46.9593,
                "longitude": 8.36836
            }
        },
        {
            "domain": "ch",
            "tag": "nextbike-stansstad",
            "city_uid": 388,
            "meta": {
                "city": "Stansstad",
                "country": "CH",
                "latitude": 46.9801,
                "longitude": 8.34098
            }
        },
        {
            "domain": "ch",
            "tag": "nextbike-horw",
            "city_uid": 391,
            "meta": {
                "city": "Horw",
                "country": "CH",
                "latitude": 47.0188,
                "longitude": 8.30828
            }
        },
        {
            "domain": "vn",
            "tag": "vrn-burstadt",
            "city_uid": 392,
            "meta": {
                "name": "VRN",
                "city": "Bürstadt",
                "country": "DE",
                "latitude": 49.6461,
                "longitude": 8.44917
            }
        },
        {
            "domain": "pb",
            "tag": "prm-stacje-sponsorskie-nextbike-prm",
            "city_uid": 394,
            "meta": {
                "name": "Stacje Sponsorskie Nextbike PRM",
                "city": "Poznań",
                "country": "PL",
                "latitude": 52.4077,
                "longitude": 16.9323
            }
        },
        {
            "domain": "la",
            "tag": "nextbike-gross-enzersdorf",
            "city_uid": 395,
            "meta": {
                "city": "Groß Enzersdorf",
                "country": "AT",
                "latitude": 48.1986,
                "longitude": 16.5496
            }
        },
        {
            "domain": "ka",
            "tag": "nextbike-klagenfurt",
            "city_uid": 396,
            "meta": {
                "city": "Klagenfurt",
                "country": "AT",
                "latitude": 46.6335,
                "longitude": 14.3085
            }
        },
        {
            "domain": "vn",
            "tag": "vrn-kaiserslautern",
            "city_uid": 398,
            "meta": {
                "name": "VRN",
                "city": "Kaiserslautern",
                "country": "DE",
                "latitude": 49.4413,
                "longitude": 7.75566
            }
        },
        {
            "domain": "el",
            "tag": "sitycleta-las-palmas-las-palmas-de-gran-canaria",
            "city_uid": 408,
            "meta": {
                "name": "Sitycleta",
                "city": "Las Palmas de Gran Canaria",
                "country": "ES",
                "latitude": 28.1236,
                "longitude": -15.4366
            }
        },
        {
            "domain": "cg",
            "tag": "grad-velika-gorica-velika-gorica",
            "city_uid": 415,
            "meta": {
                "name": "Grad Velika Gorica",
                "city": "Velika Gorica",
                "country": "HR",
                "latitude": 45.7161,
                "longitude": 16.0683
            }
        },
        {
            "domain": "cs",
            "tag": "grad-sisak-sisak",
            "city_uid": 416,
            "meta": {
                "name": "Grad Sisak",
                "city": "Sisak",
                "country": "HR",
                "latitude": 45.4875,
                "longitude": 16.3753
            }
        },
        {
            "domain": "kr",
            "tag": "kolobrzeski-rower-miejski-kolobrzeg",
            "city_uid": 422,
            "meta": {
                "name": "Kołobrzeski Rower Miejski",
                "city": "Kołobrzeg",
                "country": "PL",
                "latitude": 54.1762,
                "longitude": 15.5761
            }
        },
        {
            "domain": "cm",
            "tag": "grad-metkovic-metkovic",
            "city_uid": 424,
            "meta": {
                "name": "Grad Metković",
                "city": "Metković",
                "country": "HR",
                "latitude": 43.0654,
                "longitude": 17.642
            }
        },
        {
            "domain": "cj",
            "tag": "jastrebarsko-jastrebarsko",
            "city_uid": 425,
            "meta": {
                "city": "Jastrebarsko",
                "country": "HR",
                "latitude": 45.6692,
                "longitude": 15.6541
            }
        },
        {
            "domain": "gd",
            "tag": "grad-drnis-drnis",
            "city_uid": 426,
            "meta": {
                "city": "Drniš",
                "country": "HR",
                "latitude": 43.8425,
                "longitude": 16.1197
            }
        },
        {
            "domain": "bz",
            "tag": "nextbike-tuzla",
            "city_uid": 427,
            "meta": {
                "city": "Tuzla",
                "country": "BA",
                "latitude": 44.5392,
                "longitude": 18.675
            }
        },
        {
            "domain": "as",
            "tag": "arriva-nitra",
            "city_uid": 430,
            "meta": {
                "name": "Arriva",
                "city": "Nitra",
                "country": "SK",
                "latitude": 48.3088,
                "longitude": 18.0783
            }
        },
        {
            "domain": "nm",
            "tag": "nextbike-marburg",
            "city_uid": 438,
            "meta": {
                "city": "Marburg",
                "country": "DE",
                "latitude": 50.8019,
                "longitude": 8.76444
            }
        },
        {
            "domain": "bh",
            "tag": "bubi",
            "city_uid": 699,
            "meta": {
                "latitude": 47.497912,
                "longitude": 19.040235,
                "city": "Budapest",
                "name": "MOL Bubi",
                "country": "HU"
            }
        },
        {
            "domain": "do",
            "tag": "nextbike-russelsheim-am-main",
            "city_uid": 439,
            "meta": {
                "city": "Rüsselsheim am Main",
                "country": "DE",
                "latitude": 49.9881,
                "longitude": 8.42142
            }
        },
        {
            "domain": "rm",
            "tag": "rower-miejski-szamotuly-rms-szamotuly",
            "city_uid": 446,
            "meta": {
                "name": "Rower Miejski Szamotuły",
                "city": "Szamotuły",
                "country": "PL",
                "latitude": 52.6112,
                "longitude": 16.5819
            }
        },
        {
            "domain": "nd",
            "tag": "nextbike-dordrecht",
            "city_uid": 447,
            "meta": {
                "city": "Dordrecht",
                "country": "NL",
                "latitude": 51.7833,
                "longitude": 4.69391
            }
        },
        {
            "domain": "vn",
            "tag": "vrn-heppenheim",
            "city_uid": 448,
            "meta": {
                "name": "VRN",
                "city": "Heppenheim",
                "country": "DE",
                "latitude": 49.6431,
                "longitude": 8.63889
            }
        },
        {
            "domain": "pi",
            "tag": "piaseczynski-rower-miejski-piaseczno",
            "city_uid": 461,
            "meta": {
                "name": "Piaseczyński Rower Miejski",
                "city": "Piaseczno",
                "country": "PL",
                "latitude": 52.0733,
                "longitude": 21.0269
            }
        },
        {
            "domain": "dk",
            "tag": "nextbike-kassel",
            "city_uid": 462,
            "meta": {
                "city": "Kassel",
                "country": "DE",
                "latitude": 51.3127,
                "longitude": 9.47975
            }
        },
        {
            "domain": "ch",
            "tag": "nextbike-sarnen",
            "city_uid": 463,
            "meta": {
                "city": "Sarnen",
                "country": "CH",
                "latitude": 46.8963,
                "longitude": 8.24614
            }
        },
        {
            "domain": "ch",
            "tag": "nextbike-wolfenschiessen",
            "city_uid": 464,
            "meta": {
                "city": "Wolfenschiessen",
                "country": "CH",
                "latitude": 46.9079,
                "longitude": 8.39767
            }
        },
        {
            "domain": "ch",
            "tag": "nextbike-oberdorf",
            "city_uid": 465,
            "meta": {
                "city": "Oberdorf",
                "country": "CH",
                "latitude": 46.9563,
                "longitude": 8.3884
            }
        },
        {
            "domain": "ng",
            "tag": "nextbike-giessen",
            "city_uid": 467,
            "meta": {
                "city": "Gießen",
                "country": "DE",
                "latitude": 50.5943,
                "longitude": 8.68097
            }
        },
        {
            "domain": "vn",
            "tag": "vrn-weinheim",
            "city_uid": 469,
            "meta": {
                "name": "VRN",
                "city": "Weinheim",
                "country": "DE",
                "latitude": 49.545,
                "longitude": 8.66027
            }
        },
        {
            "domain": "uc",
            "tag": "nextbike-cardiff",
            "city_uid": 476,
            "meta": {
                "city": "Cardiff",
                "country": "GB",
                "latitude": 51.4848,
                "longitude": -3.19062
            }
        },
        {
            "domain": "vn",
            "tag": "vrn-hockenheim",
            "city_uid": 477,
            "meta": {
                "name": "VRN",
                "city": "Hockenheim",
                "country": "DE",
                "latitude": 49.3227,
                "longitude": 8.54258
            }
        },
        {
            "domain": "vn",
            "tag": "vrn-schwetzingen",
            "city_uid": 480,
            "meta": {
                "name": "VRN",
                "city": "Schwetzingen",
                "country": "DE",
                "latitude": 49.3863,
                "longitude": 8.5756
            }
        },
        {
            "domain": "ch",
            "tag": "nextbike-ennetmoos",
            "city_uid": 483,
            "meta": {
                "city": "Ennetmoos",
                "country": "CH",
                "latitude": 46.9573,
                "longitude": 8.3377
            }
        },
        {
            "domain": "vn",
            "tag": "vrn-eppelheim",
            "city_uid": 484,
            "meta": {
                "name": "VRN",
                "city": "Eppelheim",
                "country": "DE",
                "latitude": 49.4025,
                "longitude": 8.6331
            }
        },
        {
            "domain": "su",
            "tag": "nextbike-university-of-surrey",
            "city_uid": 485,
            "meta": {
                "city": "Surrey",
                "country": "GB",
                "latitude": 51.2422,
                "longitude": -0.590594
            }
        },
        {
            "domain": "uu",
            "tag": "santander-cycles-swansea-swansea-university",
            "city_uid": 486,
            "meta": {
                "name": "Santander Cycles",
                "city": "Swansea",
                "country": "GB",
                "latitude": 51.6106,
                "longitude": -3.9764
            }
        },
        {
            "domain": "ef",
            "tag": "nextbike-erfurt",
            "city_uid": 493,
            "meta": {
                "city": "Erfurt",
                "country": "DE",
                "latitude": 50.9785,
                "longitude": 11.0334
            }
        },
        {
            "domain": "bj",
            "tag": "bl-bike-banja-luka",
            "city_uid": 494,
            "meta": {
                "name": "BL bike",
                "city": "Banja Luka",
                "country": "BA",
                "latitude": 44.775,
                "longitude": 17.1994
            }
        },
        {
            "domain": "lr",
            "tag": "lahr-pedelecs-lahr",
            "city_uid": 505,
            "meta": {
                "city": "Lahr",
                "country": "DE",
                "latitude": 48.3396,
                "longitude": 7.87376
            }
        },
        {
            "domain": "cb",
            "tag": "berlin-buch-campus-berlin-buch",
            "city_uid": 508,
            "meta": {
                "name": "Berlin-Buch Campus",
                "city": "Berlin",
                "country": "DE",
                "latitude": 52.6364,
                "longitude": 13.5029
            }
        },
        {
            "domain": "nu",
            "tag": "lviv-odessa",
            "city_uid": 525,
            "meta": {
                "city": "Odessa",
                "country": "UA",
                "latitude": 46.463,
                "longitude": 30.7042
            }
        },
        {
            "domain": "pm",
            "tag": "zielonogorski-rower-miejski-zielona-gora",
            "city_uid": 529,
            "meta": {
                "name": "Zielonogórski Rower Miejski",
                "city": "Zielona Góra",
                "country": "PL",
                "latitude": 51.9381,
                "longitude": 15.5048
            }
        },
        {
            "domain": "sn",
            "tag": "santander-monchengladbach",
            "city_uid": 530,
            "meta": {
                "name": "Santander Mönchengladbach",
                "city": "Mönchengladbach",
                "country": "DE",
                "latitude": 51.1817,
                "longitude": 6.43578
            }
        },
        {
            "domain": "cn",
            "tag": "nomagobikes-celje",
            "city_uid": 531,
            "meta": {
                "name": "NomagoBikes",
                "city": "Celje",
                "country": "SI",
                "latitude": 46.2388,
                "longitude": 15.2693
            }
        },
        {
            "domain": "bo",
            "tag": "bilbon-bizi",
            "city_uid": 532,
            "meta": {
                "name": "BilbonBizi",
                "city": "Bilbao",
                "country": "ES",
                "latitude": 43.2752,
                "longitude": -2.93528
            }
        },
        {
            "domain": "cn",
            "tag": "nomagobikes-lasko",
            "city_uid": 535,
            "meta": {
                "name": "NomagoBikes",
                "city": "Laško",
                "country": "SI",
                "latitude": 46.1458,
                "longitude": 15.2312
            }
        },
        {
            "domain": "li",
            "tag": "nextbike-lippstadt",
            "city_uid": 536,
            "meta": {
                "city": "Lippstadt",
                "country": "DE",
                "latitude": 51.6755,
                "longitude": 8.34394
            }
        },
        {
            "domain": "ak",
            "tag": "bikekia-zilina",
            "city_uid": 538,
            "meta": {
                "name": "BikeKia",
                "city": "Žilina",
                "country": "SK",
                "latitude": 49.2217,
                "longitude": 18.7572
            }
        },
        {
            "domain": "pn",
            "tag": "koninski-rower-miejski-konin",
            "city_uid": 545,
            "meta": {
                "name": "Koniński Rower Miejski",
                "city": "Konin",
                "country": "PL",
                "latitude": 52.2284,
                "longitude": 18.2553
            }
        },
        {
            "domain": "uv",
            "tag": "nextbike-vinnytsia",
            "city_uid": 546,
            "meta": {
                "city": "Vinnytsia",
                "country": "UA",
                "latitude": 49.2328,
                "longitude": 28.4625
            }
        },
        {
            "domain": "bf",
            "tag": "nextbike-bonn",
            "city_uid": 547,
            "meta": {
                "city": "Bonn",
                "country": "DE",
                "latitude": 50.7367,
                "longitude": 7.09541
            }
        },
        {
            "domain": "tn",
            "tag": "tarnowski-rower-miejski-tarnow",
            "city_uid": 548,
            "meta": {
                "name": "Tarnowski Rower Miejski",
                "city": "Tarnów",
                "country": "PL",
                "latitude": 50.0113,
                "longitude": 20.9728
            }
        },
        {
            "domain": "mk",
            "tag": "kolo-marek-marki",
            "city_uid": 550,
            "meta": {
                "name": "Koło Marek",
                "city": "Marki",
                "country": "PL",
                "latitude": 52.3256,
                "longitude": 21.1089
            }
        },
        {
            "domain": "pw",
            "tag": "rowerowe-lodzkie-rl-koluszki",
            "city_uid": 562,
            "meta": {
                "name": "Rowerowe Łódzkie",
                "city": "Koluszki",
                "country": "PL",
                "latitude": 51.7401,
                "longitude": 19.835
            }
        },
        {
            "domain": "pw",
            "tag": "rowerowe-lodzkie-rl-lask",
            "city_uid": 563,
            "meta": {
                "name": "Rowerowe Łódzkie",
                "city": "Łask",
                "country": "PL",
                "latitude": 51.5893,
                "longitude": 19.142
            }
        },
        {
            "domain": "pw",
            "tag": "rowerowe-lodzkie-rl-lowicz",
            "city_uid": 564,
            "meta": {
                "name": "Rowerowe Łódzkie",
                "city": "Łowicz",
                "country": "PL",
                "latitude": 52.1057,
                "longitude": 19.9381
            }
        },
        {
            "domain": "pw",
            "tag": "rowerowe-lodzkie-rl-pabianice",
            "city_uid": 565,
            "meta": {
                "name": "Rowerowe Łódzkie",
                "city": "Pabianice",
                "country": "PL",
                "latitude": 51.6651,
                "longitude": 19.3548
            }
        },
        {
            "domain": "pw",
            "tag": "rowerowe-lodzkie-rl-sieradz",
            "city_uid": 566,
            "meta": {
                "name": "Rowerowe Łódzkie",
                "city": "Sieradz",
                "country": "PL",
                "latitude": 51.5902,
                "longitude": 18.7382
            }
        },
        {
            "domain": "pw",
            "tag": "rowerowe-lodzkie-rl-skierniewice",
            "city_uid": 567,
            "meta": {
                "name": "Rowerowe Łódzkie",
                "city": "Skierniewice",
                "country": "PL",
                "latitude": 51.9539,
                "longitude": 20.1469
            }
        },
        {
            "domain": "pw",
            "tag": "rowerowe-lodzkie-rl-zdunska-wola",
            "city_uid": 568,
            "meta": {
                "name": "Rowerowe Łódzkie",
                "city": "Zduńska Wola",
                "country": "PL",
                "latitude": 51.6011,
                "longitude": 18.938
            }
        },
        {
            "domain": "pw",
            "tag": "rowerowe-lodzkie-rl-zgierz",
            "city_uid": 569,
            "meta": {
                "name": "Rowerowe Łódzkie",
                "city": "Zgierz",
                "country": "PL",
                "latitude": 51.8551,
                "longitude": 19.4068
            }
        },
        {
            "domain": "pw",
            "tag": "rowerowe-lodzkie-rl-kutno",
            "city_uid": 570,
            "meta": {
                "name": "Rowerowe Łódzkie",
                "city": "Kutno",
                "country": "PL",
                "latitude": 52.2317,
                "longitude": 19.3564
            }
        },
        {
            "domain": "pw",
            "tag": "rowerowe-lodzkie-rl-lodz-rl",
            "city_uid": 571,
            "meta": {
                "name": "Rowerowe Łódzkie",
                "city": "Łódź",
                "country": "PL",
                "latitude": 51.7674,
                "longitude": 19.4575
            }
        },
        {
            "domain": "df",
            "tag": "frelo-freiburg",
            "city_uid": 619,
            "meta": {
                "name": "Frelo",
                "city": "Freiburg",
                "country": "DE",
                "latitude": 47.9958,
                "longitude": 7.84453
            }
        },
        {
            "domain": "wr",
            "tag": "wienmobil-rad",
            "city_uid": 748,
            "meta": {
                "name": "WienMobil Rad",
                "city": "Wien",
                "country": "AT",
                "latitude": 48.2081743,
                "longitude": 16.3738189
            }
        },
        {
            "domain": "sf",
            "tag": "sprottenflotte-kiel",
            "city_uid": 613,
            "meta": {
                "name": "Sprottenflotte",
                "city": "Kiel",
                "country": "DE",
                "latitude": 54.2837,
                "longitude": 10.13213
            }
        }
    ],
    "system": "nextbike",
    "class": "Nextbike"
}
