{
    "instances": [
        {
            "domain": "de",
            "tag": "nextbike-leipzig",
            "meta": {
                "latitude": 51.3415,
                "city": "Leipzig",
                "longitude": 12.3625,
                "country": "DE"
            },
            "city_uid": "1"
        },
        {
            "domain": "de",
            "tag": "nextbike-tubingen",
            "meta": {
                "latitude": 48.5203,
                "city": "Tübingen",
                "longitude": 9.05591,
                "country": "DE"
            },
            "city_uid": "101"
        },
        {
            "domain": "ch",
            "tag": "nextbike-luzern",
            "meta": {
                "latitude": 47.0472,
                "city": "Luzern",
                "longitude": 8.30446,
                "country": "CH"
            },
            "city_uid": "126"
        },
        {
            "domain": "lv",
            "tag": "sixt-latvia-riga",
            "meta": {
                "latitude": 56.9453,
                "city": "Rīga",
                "name": "SiXT",
                "longitude": 24.1033,
                "country": "LV"
            },
            "city_uid": "128"
        },
        {
            "domain": "mr",
            "tag": "metropolradruhr-germany-dortmund",
            "meta": {
                "latitude": 51.5141,
                "city": "Dortmund",
                "name": "metropolradruhr",
                "longitude": 7.46255,
                "country": "DE"
            },
            "city_uid": "129"
        },
        {
            "domain": "mr",
            "tag": "metropolradruhr-germany-bochum",
            "meta": {
                "latitude": 51.4813,
                "city": "Bochum",
                "name": "metropolradruhr",
                "longitude": 7.2133,
                "country": "DE"
            },
            "city_uid": "130"
        },
        {
            "domain": "mr",
            "tag": "metropolradruhr-germany-bottrop",
            "meta": {
                "latitude": 51.5263,
                "city": "Bottrop",
                "name": "metropolradruhr",
                "longitude": 6.94611,
                "country": "DE"
            },
            "city_uid": "131"
        },
        {
            "domain": "mr",
            "tag": "metropolradruhr-germany-duisburg",
            "meta": {
                "latitude": 51.4487,
                "city": "Duisburg",
                "name": "metropolradruhr",
                "longitude": 6.77513,
                "country": "DE"
            },
            "city_uid": "132"
        },
        {
            "domain": "mr",
            "tag": "metropolradruhr-germany-essen",
            "meta": {
                "latitude": 51.4425,
                "city": "Essen",
                "name": "metropolradruhr",
                "longitude": 7.02301,
                "country": "DE"
            },
            "city_uid": "133"
        },
        {
            "domain": "mr",
            "tag": "metropolradruhr-germany-gelsenkirchen",
            "meta": {
                "latitude": 51.5404,
                "city": "Gelsenkirchen",
                "name": "metropolradruhr",
                "longitude": 7.07039,
                "country": "DE"
            },
            "city_uid": "134"
        },
        {
            "domain": "mr",
            "tag": "metropolradruhr-germany-hamm",
            "meta": {
                "latitude": 51.6775,
                "city": "Hamm",
                "name": "metropolradruhr",
                "longitude": 7.84836,
                "country": "DE"
            },
            "city_uid": "135"
        },
        {
            "domain": "mr",
            "tag": "metropolradruhr-germany-herne",
            "meta": {
                "latitude": 51.5363,
                "city": "Herne",
                "name": "metropolradruhr",
                "longitude": 7.21493,
                "country": "DE"
            },
            "city_uid": "136"
        },
        {
            "domain": "mr",
            "tag": "metropolradruhr-germany-mulheim-a-d-r",
            "meta": {
                "latitude": 51.4308,
                "city": "Mülheim a.d.R.",
                "name": "metropolradruhr",
                "longitude": 6.87401,
                "country": "DE"
            },
            "city_uid": "137"
        },
        {
            "domain": "mr",
            "tag": "metropolradruhr-germany-oberhausen",
            "meta": {
                "latitude": 51.4936,
                "city": "Oberhausen",
                "name": "metropolradruhr",
                "longitude": 6.85169,
                "country": "DE"
            },
            "city_uid": "138"
        },
        {
            "domain": "de",
            "tag": "nextbike-munchen",
            "meta": {
                "latitude": 48.1392,
                "city": "München",
                "longitude": 11.5791,
                "country": "DE"
            },
            "city_uid": "139"
        },
        {
            "domain": "lv",
            "tag": "sixt-latvia-jurmala",
            "meta": {
                "latitude": 56.9732,
                "city": "Jūrmala",
                "name": "SiXT",
                "longitude": 23.8225,
                "country": "LV"
            },
            "city_uid": "140"
        },
        {
            "domain": "la",
            "tag": "nextbike-wachau",
            "meta": {
                "latitude": 48.3188,
                "city": "Wachau",
                "name": "LEIHRADL",
                "longitude": 15.4166,
                "country": "AT"
            },
            "city_uid": "142"
        },
        {
            "domain": "la",
            "tag": "nextbike-tulln",
            "meta": {
                "latitude": 48.3269,
                "city": "Tulln",
                "name": "LEIHRADL",
                "longitude": 16.0569,
                "country": "AT"
            },
            "city_uid": "143"
        },
        {
            "domain": "la",
            "tag": "nextbike-triestingtal",
            "meta": {
                "latitude": 47.9835,
                "city": "Triestingtal",
                "name": "LEIHRADL",
                "longitude": 16.0812,
                "country": "AT"
            },
            "city_uid": "144"
        },
        {
            "domain": "la",
            "tag": "nextbike-thermenregion",
            "meta": {
                "latitude": 47.9892,
                "city": "Thermenregion",
                "name": "LEIHRADL",
                "longitude": 16.2646,
                "country": "AT"
            },
            "city_uid": "146"
        },
        {
            "domain": "de",
            "tag": "nextbike-flensburg",
            "meta": {
                "latitude": 54.7804,
                "city": "Flensburg",
                "longitude": 9.43571,
                "country": "DE"
            },
            "city_uid": "147"
        },
        {
            "domain": "la",
            "tag": "nextbike-romerland",
            "meta": {
                "latitude": 48.0909,
                "city": "Römerland",
                "name": "LEIHRADL",
                "longitude": 16.853,
                "country": "AT"
            },
            "city_uid": "149"
        },
        {
            "domain": "la",
            "tag": "nextbike-obb-bahnhofe",
            "meta": {
                "latitude": 48.0193,
                "city": "ÖBB-Bahnhöfe",
                "name": "LEIHRADL",
                "longitude": 16.3092,
                "country": "AT"
            },
            "city_uid": "150"
        },
        {
            "domain": "de",
            "tag": "nextbike-offenburg",
            "meta": {
                "latitude": 48.4721,
                "city": "Offenburg",
                "longitude": 7.94243,
                "country": "DE"
            },
            "city_uid": "155"
        },
        {
            "domain": "la",
            "tag": "nextbike-wr-neustadt",
            "meta": {
                "latitude": 47.8221,
                "city": "Wr.Neustadt",
                "name": "LEIHRADL",
                "longitude": 16.2498,
                "country": "AT"
            },
            "city_uid": "156"
        },
        {
            "domain": "de",
            "tag": "nextbike-potsdam",
            "meta": {
                "latitude": 52.3997,
                "city": "Potsdam",
                "longitude": 13.0676,
                "country": "DE"
            },
            "city_uid": "158"
        },
        {
            "domain": "de",
            "tag": "nextbike-gutersloh",
            "meta": {
                "latitude": 51.9049,
                "city": "Gütersloh",
                "longitude": 8.39275,
                "country": "DE"
            },
            "city_uid": "160"
        },
        {
            "domain": "la",
            "tag": "nextbike-unteres-traisental",
            "meta": {
                "latitude": 48.3343,
                "city": "Unteres Traisental",
                "name": "LEIHRADL",
                "longitude": 15.6878,
                "country": "AT"
            },
            "city_uid": "165"
        },
        {
            "domain": "la",
            "tag": "nextbike-marchfeld",
            "meta": {
                "latitude": 48.2741,
                "city": "Marchfeld",
                "name": "LEIHRADL",
                "longitude": 16.7116,
                "country": "AT"
            },
            "city_uid": "170"
        },
        {
            "domain": "la",
            "tag": "nextbike-10vorwien",
            "meta": {
                "latitude": 48.3462,
                "city": "Wien",
                "name": "LEIHRADL",
                "longitude": 16.2735,
                "country": "AT"
            },
            "city_uid": "174"
        },
        {
            "domain": "ur",
            "tag": "usedomrad-germany-usedom",
            "meta": {
                "latitude": 53.9779,
                "city": "Usedom",
                "name": "UsedomRad",
                "longitude": 13.9925,
                "country": "DE"
            },
            "city_uid": "176"
        },
        {
            "domain": "de",
            "tag": "nextbike-norderstedt",
            "meta": {
                "latitude": 53.6969,
                "city": "Norderstedt",
                "longitude": 10.002,
                "country": "DE"
            },
            "city_uid": "177"
        },
        {
            "domain": "ag",
            "tag": "nextbike-augsburg",
            "meta": {
                "latitude": 48.3647,
                "city": "Augsburg",
                "name": "SWA Rad",
                "longitude": 10.8916,
                "country": "DE"
            },
            "city_uid": "178"
        },
        {
            "domain": "la",
            "tag": "nextbike-traisen-golsental",
            "meta": {
                "latitude": 47.9504,
                "city": "Traisen-Gölsental",
                "name": "LEIHRADL",
                "longitude": 15.6129,
                "country": "AT"
            },
            "city_uid": "180"
        },
        {
            "domain": "la",
            "tag": "nextbike-oberes-ybbstal",
            "meta": {
                "latitude": 47.8205,
                "city": "Oberes Ybbstal",
                "name": "LEIHRADL",
                "longitude": 15.0073,
                "country": "AT"
            },
            "city_uid": "181"
        },
        {
            "domain": "nk",
            "tag": "nextbike-konya",
            "meta": {
                "latitude": 37.8715,
                "city": "Konya",
                "longitude": 32.4957,
                "country": "TR"
            },
            "city_uid": "183"
        },
        {
            "domain": "la",
            "tag": "nextbike-laa-an-der-thaya",
            "meta": {
                "latitude": 48.7196,
                "city": "Laa an der Thaya",
                "name": "LEIHRADL",
                "longitude": 16.3878,
                "country": "AT"
            },
            "city_uid": "184"
        },
        {
            "domain": "la",
            "tag": "nextbike-sudheide",
            "meta": {
                "latitude": 48.1077,
                "city": "Südheide",
                "name": "LEIHRADL",
                "longitude": 16.3937,
                "country": "AT"
            },
            "city_uid": "185"
        },
        {
            "domain": "cy",
            "tag": "nextbike-limassol",
            "meta": {
                "latitude": 34.6823,
                "city": "Limassol",
                "longitude": 33.0464,
                "country": "CY"
            },
            "city_uid": "190"
        },
        {
            "domain": "nz",
            "tag": "nextbike-christchurch",
            "meta": {
                "latitude": -43.5341,
                "city": "Christchurch",
                "longitude": 172.621,
                "country": "NZ"
            },
            "city_uid": "193"
        },
        {
            "domain": "vn",
            "tag": "nextbike-heidelberg",
            "meta": {
                "latitude": 49.4113,
                "city": "Heidelberg",
                "name": "VRNnextbike",
                "longitude": 8.68933,
                "country": "DE"
            },
            "city_uid": "194"
        },
        {
            "domain": "vn",
            "tag": "nextbike-mannheim",
            "meta": {
                "latitude": 49.4621,
                "city": "Mannheim",
                "name": "VRNnextbike",
                "longitude": 8.49054,
                "country": "DE"
            },
            "city_uid": "195"
        },
        {
            "domain": "la",
            "tag": "nextbike-tullnerfeld-west",
            "meta": {
                "latitude": 48.2994,
                "city": "Tullnerfeld West",
                "name": "LEIHRADL",
                "longitude": 15.9065,
                "country": "AT"
            },
            "city_uid": "196"
        },
        {
            "domain": "si",
            "tag": "stadtrad-innsbruck-innsbruck",
            "meta": {
                "latitude": 47.2632,
                "city": "Innsbruck",
                "name": "Stadtrad",
                "longitude": 11.3961,
                "country": "AT"
            },
            "city_uid": "199"
        },
        {
            "domain": "sz",
            "tag": "sz-bike-germany-dresden",
            "meta": {
                "latitude": 51.0535,
                "city": "Dresden",
                "name": "SZ-bike",
                "longitude": 13.7387,
                "country": "DE"
            },
            "city_uid": "2"
        },
        {
            "domain": "de",
            "tag": "nextbike-berlin",
            "meta": {
                "latitude": 52.5087,
                "city": "Berlin",
                "longitude": 13.3563,
                "country": "DE"
            },
            "city_uid": "20"
        },
        {
            "domain": "fg",
            "tag": "facherrad-germany-karlsruhe",
            "meta": {
                "latitude": 49.0102,
                "city": "Karlsruhe",
                "name": "Fächerrad",
                "longitude": 8.41827,
                "country": "DE"
            },
            "city_uid": "21"
        },
        {
            "domain": "la",
            "tag": "nextbike-hollabrunn",
            "meta": {
                "latitude": 48.562,
                "city": "Hollabrunn",
                "name": "LEIHRADL",
                "longitude": 16.0785,
                "country": "AT"
            },
            "city_uid": "212"
        },
        {
            "domain": "la",
            "tag": "nextbike-wienerwald",
            "meta": {
                "latitude": 48.1917,
                "city": "WienerWald",
                "name": "LEIHRADL",
                "longitude": 16.1197,
                "country": "AT"
            },
            "city_uid": "213"
        },
        {
            "domain": "bg",
            "tag": "nextbike-dobrich",
            "meta": {
                "latitude": 43.567,
                "city": "Dobrich",
                "longitude": 27.8285,
                "country": "BG"
            },
            "city_uid": "215"
        },
        {
            "domain": "me",
            "tag": "bykystations-uae-dubai",
            "meta": {
                "latitude": 25.2435,
                "city": "Dubai",
                "name": "BYKYstations",
                "longitude": 55.2722,
                "country": "AE"
            },
            "city_uid": "219"
        },
        {
            "domain": "hr",
            "tag": "nextbike-zagreb",
            "meta": {
                "latitude": 45.7988,
                "city": "Zagreb",
                "longitude": 15.9643,
                "country": "HR"
            },
            "city_uid": "220"
        },
        {
            "domain": "eg",
            "tag": "ebikestation-stuttgart-germany-bietigheim-bissingen",
            "meta": {
                "latitude": 48.9495,
                "city": "Bietigheim-Bissingen",
                "name": "ebikestation",
                "longitude": 9.12518,
                "country": "DE"
            },
            "city_uid": "226"
        },
        {
            "domain": "la",
            "tag": "nextbike-neusiedlersee",
            "meta": {
                "latitude": 47.839,
                "city": "NeusiedlerSee",
                "name": "LEIHRADL",
                "longitude": 16.761,
                "country": "AT"
            },
            "city_uid": "23"
        },
        {
            "domain": "uk",
            "tag": "nextbike-bath",
            "meta": {
                "latitude": 51.382,
                "city": "Bath",
                "longitude": -2.36275,
                "country": "GB"
            },
            "city_uid": "236"
        },
        {
            "domain": "uk",
            "tag": "nextbike-glasgow",
            "meta": {
                "latitude": 55.8589,
                "city": "Glasgow",
                "longitude": -4.25549,
                "country": "GB"
            },
            "city_uid": "237"
        },
        {
            "domain": "bu",
            "tag": "belfastbikes-belfast",
            "meta": {
                "latitude": 54.5969,
                "city": "Belfast",
                "name": "BelfastBikes",
                "longitude": -5.92918,
                "country": "GB"
            },
            "city_uid": "238"
        },
        {
            "domain": "de",
            "tag": "nextbike-friedrichshafen",
            "meta": {
                "latitude": 47.6519,
                "city": "Friedrichshafen",
                "longitude": 9.47837,
                "country": "DE"
            },
            "city_uid": "24"
        },
        {
            "domain": "uk",
            "tag": "nextbike-stirling",
            "meta": {
                "latitude": 56.1165,
                "city": "Stirling",
                "longitude": -3.9369,
                "country": "GB"
            },
            "city_uid": "243"
        },
        {
            "domain": "bc",
            "tag": "bike-point-sibenik-sibenik",
            "meta": {
                "latitude": 43.733,
                "city": "Šibenik",
                "name": "Bike Point",
                "longitude": 15.8982,
                "country": "HR"
            },
            "city_uid": "248"
        },
        {
            "domain": "tr",
            "tag": "karbis-turkey-seferihisar",
            "meta": {
                "latitude": 38.1962,
                "city": "Seferihisar",
                "name": "KARBIS",
                "longitude": 26.8386,
                "country": "TR"
            },
            "city_uid": "249"
        },
        {
            "domain": "eg",
            "tag": "ebikestation-stuttgart-germany-schwieberdingen",
            "meta": {
                "latitude": 48.8723,
                "city": "Schwieberdingen",
                "name": "ebikestation",
                "longitude": 9.07419,
                "country": "DE"
            },
            "city_uid": "253"
        },
        {
            "domain": "pp",
            "tag": "healthy-ride-pittsburgh-pittsburgh",
            "meta": {
                "latitude": 40.4459,
                "city": "Pittsburgh",
                "name": "Healthy Ride",
                "longitude": -79.9945,
                "country": "US"
            },
            "city_uid": "254"
        },
        {
            "domain": "de",
            "tag": "nextbike-quickborn",
            "meta": {
                "latitude": 53.7333,
                "city": "Quickborn",
                "longitude": 9.90272,
                "country": "DE"
            },
            "city_uid": "256"
        },
        {
            "domain": "nj",
            "tag": "hudsonbikeshare-hoboken",
            "meta": {
                "latitude": 40.7447,
                "city": "Hoboken",
                "name": "Hudsonbikeshare",
                "longitude": -74.0341,
                "country": "US"
            },
            "city_uid": "258"
        },
        {
            "domain": "nz",
            "tag": "nextbike-cambridge",
            "meta": {
                "latitude": -37.8914,
                "city": "Cambridge",
                "longitude": 175.472,
                "country": "NZ"
            },
            "city_uid": "261"
        },
        {
            "domain": "sa",
            "tag": "ibike-saudi-arabia-king-abdullah-economic-city",
            "meta": {
                "latitude": 22.3113,
                "city": "King Abdullah Economic City",
                "name": "iBike",
                "longitude": 39.1031,
                "country": "SA"
            },
            "city_uid": "264"
        },
        {
            "domain": "vn",
            "tag": "nextbike-ludwigshafen",
            "meta": {
                "latitude": 49.4741,
                "city": "Ludwigshafen",
                "name": "VRNnextbike",
                "longitude": 8.43287,
                "country": "DE"
            },
            "city_uid": "266"
        },
        {
            "domain": "eg",
            "tag": "ebikestation-stuttgart-germany-waiblingen",
            "meta": {
                "latitude": 48.8333,
                "city": "Waiblingen",
                "name": "ebikestation",
                "longitude": 9.31667,
                "country": "DE"
            },
            "city_uid": "267"
        },
        {
            "domain": "uk",
            "tag": "nextbike-uni-warwick",
            "meta": {
                "latitude": 52.3815,
                "city": "Coventry",
                "name": "UniCycles @ Warwick",
                "longitude": -1.56159,
                "country": "GB"
            },
            "city_uid": "272"
        },
        {
            "domain": "vn",
            "tag": "nextbike-speyer",
            "meta": {
                "latitude": 49.3126,
                "city": "Speyer",
                "name": "VRNnextbike",
                "longitude": 8.45295,
                "country": "DE"
            },
            "city_uid": "278"
        },
        {
            "domain": "de",
            "tag": "nextbike-wurzburg",
            "meta": {
                "latitude": 49.8,
                "city": "Würzburg",
                "longitude": 9.93333,
                "country": "DE"
            },
            "city_uid": "281"
        },
        {
            "domain": "wb",
            "tag": "skybike-west-palm-beach-west-palm-beach-florida",
            "meta": {
                "latitude": 26.7125,
                "city": "West Palm Beach Florida",
                "name": "Skybike",
                "longitude": -80.0821,
                "country": "US"
            },
            "city_uid": "283"
        },
        {
            "domain": "ta",
            "tag": "nextbike-serfaus",
            "meta": {
                "latitude": 47.0387,
                "city": "Serfaus",
                "longitude": 10.6048,
                "country": "AT"
            },
            "city_uid": "286"
        },
        {
            "domain": "eg",
            "tag": "ebikestation-stuttgart-germany-vaihingen-an-der-enz",
            "meta": {
                "latitude": 48.9334,
                "city": "Vaihingen an der Enz",
                "name": "ebikestation",
                "longitude": 8.96121,
                "country": "DE"
            },
            "city_uid": "287"
        },
        {
            "domain": "eg",
            "tag": "ebikestation-stuttgart-germany-herrenberg",
            "meta": {
                "latitude": 48.595,
                "city": "Herrenberg",
                "name": "ebikestation",
                "longitude": 8.86716,
                "country": "DE"
            },
            "city_uid": "288"
        },
        {
            "domain": "gs",
            "tag": "nextbike-gospic",
            "meta": {
                "latitude": 44.5469,
                "city": "Gospić",
                "longitude": 15.375,
                "country": "HR"
            },
            "city_uid": "291"
        },
        {
            "domain": "kc",
            "tag": "nextbike-karlovac",
            "meta": {
                "latitude": 45.4905,
                "city": "Karlovac",
                "longitude": 15.5503,
                "country": "HR"
            },
            "city_uid": "305"
        },
        {
            "domain": "ks",
            "tag": "flashfleet-kent-state-university",
            "meta": {
                "latitude": 41.1491,
                "city": "Kent State University",
                "name": "Flashfleet",
                "longitude": -81.3415,
                "country": "US"
            },
            "city_uid": "306"
        },
        {
            "domain": "de",
            "tag": "nextbike-offenbach-am-main",
            "meta": {
                "latitude": 50.1093,
                "city": "Offenbach am Main",
                "longitude": 8.73825,
                "country": "DE"
            },
            "city_uid": "32"
        },
        {
            "domain": "nz",
            "tag": "nextbike-auckland",
            "meta": {
                "latitude": -36.8603,
                "city": "Auckland",
                "longitude": 174.763,
                "country": "NZ"
            },
            "city_uid": "34"
        },
        {
            "domain": "de",
            "tag": "nextbike-magdeburg",
            "meta": {
                "latitude": 52.1268,
                "city": "Magdeburg",
                "longitude": 11.6342,
                "country": "DE"
            },
            "city_uid": "42"
        },
        {
            "domain": "de",
            "tag": "nextbike-hamburg",
            "meta": {
                "latitude": 53.5506,
                "city": "Hamburg",
                "longitude": 9.99052,
                "country": "DE"
            },
            "city_uid": "43"
        },
        {
            "domain": "de",
            "tag": "nextbike-dusseldorf",
            "meta": {
                "latitude": 51.2243,
                "city": "Düsseldorf",
                "longitude": 6.77204,
                "country": "DE"
            },
            "city_uid": "50"
        },
        {
            "domain": "la",
            "tag": "nextbike-st-polten",
            "meta": {
                "latitude": 48.2058,
                "city": "St.Pölten",
                "name": "LEIHRADL",
                "longitude": 15.6232,
                "country": "AT"
            },
            "city_uid": "57"
        },
        {
            "domain": "nb",
            "tag": "norisbike-germany-nurnberg",
            "meta": {
                "latitude": 49.4479,
                "city": "Nürnberg",
                "name": "NorisBike",
                "longitude": 11.0814,
                "country": "DE"
            },
            "city_uid": "6"
        },
        {
            "domain": "la",
            "tag": "nextbike-modling",
            "meta": {
                "latitude": 48.1047,
                "city": "Mödling",
                "name": "LEIHRADL",
                "longitude": 16.3202,
                "country": "AT"
            },
            "city_uid": "64"
        },
        {
            "domain": "de",
            "tag": "nextbike-frankfurt",
            "meta": {
                "latitude": 50.1072,
                "city": "Frankfurt",
                "longitude": 8.66375,
                "country": "DE"
            },
            "city_uid": "8"
        },
        {
            "domain": "ch",
            "tag": "nextbike-sursee",
            "meta": {
                "latitude": 47.1713,
                "city": "Sursee",
                "longitude": 8.10877,
                "country": "CH"
            },
            "city_uid": "88"
        },
        {
            "domain": "mb",
            "tag": "bubi",
            "meta": {
                "latitude": 47.497912,
                "city": "Budapest",
                "name": "MOL Bubi",
                "longitude": 19.040235,
                "country": "HU"
            },
            "city_uid": 228
        },
        {
            "domain": "kg",
            "tag": "kvb-rad",
            "meta": {
                "latitude": 50.9364,
                "city": "Köln",
                "name": "KVB Rad",
                "longitude": 6.96053,
                "country": "DE"
            },
            "city_uid": 14
        },
        {
            "domain": "pl",
            "tag": "wrm-wroclaw",
            "city_uid": 148,
            "meta": {
                "name": "WRM",
                "city": "Wrocław",
                "country": "PL",
                "latitude": 51.1097,
                "longitude": 17.0485
            }
        },
        {
            "domain": "pb",
            "tag": "prm-poznan",
            "city_uid": 192,
            "meta": {
                "name": "PRM",
                "city": "Poznań",
                "country": "PL",
                "latitude": 52.4077,
                "longitude": 16.9323
            }
        },
        {
            "domain": "ob",
            "tag": "opole-bike-opole",
            "city_uid": 202,
            "meta": {
                "name": "Opole Bike",
                "city": "Opole",
                "country": "PL",
                "latitude": 50.6633,
                "longitude": 17.9239
            }
        },
        {
            "domain": "vp",
            "tag": "veturilo-warszawa",
            "city_uid": 210,
            "meta": {
                "name": "VETURILO",
                "city": "Warszawa",
                "country": "PL",
                "latitude": 52.2265,
                "longitude": 21.0127
            }
        },
        {
            "domain": "bp",
            "tag": "biker-bialystok-bialystok",
            "city_uid": 245,
            "meta": {
                "name": "BIKER Białystok",
                "city": "Białystok",
                "country": "PL",
                "latitude": 53.1342,
                "longitude": 23.1485
            }
        },
        {
            "domain": "op",
            "tag": "krm-konstancinski-konstancin-jeziorna",
            "city_uid": 247,
            "meta": {
                "name": "KRM Konstanciński",
                "city": "Konstancin Jeziorna",
                "country": "PL",
                "latitude": 52.0759,
                "longitude": 21.1161
            }
        },
        {
            "domain": "ln",
            "tag": "lrm-lublin-lublin",
            "city_uid": 251,
            "meta": {
                "name": "LRM Lublin",
                "city": "Lublin",
                "country": "PL",
                "latitude": 51.2469,
                "longitude": 22.5697
            }
        },
        {
            "domain": "gp",
            "tag": "grm-grodzisk-grodzisk-mazowiecki",
            "city_uid": 255,
            "meta": {
                "name": "GRM Grodzisk",
                "city": "Grodzisk Mazowiecki",
                "country": "PL",
                "latitude": 52.113,
                "longitude": 20.6265
            }
        },
        {
            "domain": "lp",
            "tag": "lodzki-rower-publiczny-lodz",
            "city_uid": 330,
            "meta": {
                "name": "Łódzki Rower Publiczny",
                "city": "Lódź",
                "country": "PL",
                "latitude": 51.7689,
                "longitude": 19.4554
            }
        },
        {
            "domain": "ln",
            "tag": "lrm-lublin-swidnik",
            "city_uid": 331,
            "meta": {
                "name": "LRM Lublin",
                "city": "Świdnik",
                "country": "PL",
                "latitude": 51.2194,
                "longitude": 22.6988
            }
        },
        {
            "domain": "sw",
            "tag": "stalowa-wola-miasto-rowerow-stalowa-wola",
            "city_uid": 339,
            "meta": {
                "name": "Stalowa Wola miasto rowerów",
                "city": "Stalowa Wola",
                "country": "PL",
                "latitude": 50.57,
                "longitude": 22.0626
            }
        },
        {
            "domain": "kw",
            "tag": "katowice-bike-katowice",
            "city_uid": 342,
            "meta": {
                "name": "Katowice Bike",
                "city": "Katowice",
                "country": "PL",
                "latitude": 50.2594,
                "longitude": 19.0215
            }
        },
        {
            "domain": "sp",
            "tag": "bike_s-srm-szczecin",
            "city_uid": 346,
            "meta": {
                "name": "Bike_S SRM",
                "city": "Szczecin",
                "country": "PL",
                "latitude": 53.4301,
                "longitude": 14.5498
            }
        },
        {
            "domain": "mw",
            "tag": "rower-gminny-michalowice-michalowice",
            "city_uid": 359,
            "meta": {
                "name": "Rower Gminny Michałowice",
                "city": "Michałowice",
                "country": "PL",
                "latitude": 52.1686,
                "longitude": 20.9957
            }
        },
        {
            "domain": "mp",
            "tag": "system-legnicki-rower-miejski-slrm-legnica",
            "city_uid": 363,
            "meta": {
                "name": "System Legnicki Rower Miejski (SLRM)",
                "city": "Legnica",
                "country": "PL",
                "latitude": 51.2059,
                "longitude": 16.1667
            }
        },
        {
            "domain": "vp",
            "tag": "veturilo-stacje-sponsorskie-nextbike-veturilo",
            "city_uid": 372,
            "meta": {
                "name": "Stacje Sponsorskie Nextbike Veturilo",
                "city": "Warszawa",
                "country": "PL",
                "latitude": 52.2265,
                "longitude": 21.0127
            }
        },
        {
            "domain": "gm",
            "tag": "gliwicki-rower-miejski-sgrm-gliwice",
            "city_uid": 393,
            "meta": {
                "name": "Gliwicki Rower Miejski (SGRM)",
                "city": "Gliwice",
                "country": "PL",
                "latitude": 50.2937,
                "longitude": 18.6737
            }
        },
        {
            "domain": "pb",
            "tag": "prm-stacje-sponsorskie-nextbike-prm",
            "city_uid": 394,
            "meta": {
                "name": "Stacje Sponsorskie Nextbike PRM",
                "city": "Poznań",
                "country": "PL",
                "latitude": 52.4077,
                "longitude": 16.9323
            }
        },
        {
            "domain": "rp",
            "tag": "radomski-rower-miejski-radom",
            "city_uid": 400,
            "meta": {
                "name": "Radomski Rower Miejski",
                "city": "Radom",
                "country": "PL",
                "latitude": 51.3994,
                "longitude": 21.1655
            }
        },
        {
            "domain": "rp",
            "tag": "radomski-rower-miejski-stacje-sponsorskie-radom",
            "city_uid": 401,
            "meta": {
                "name": "Stacje Sponsorskie Radom",
                "city": "Radom",
                "country": "PL",
                "latitude": 51.3994,
                "longitude": 21.1655
            }
        },
        {
            "domain": "ap",
            "tag": "system-rowerow-miejskich-w-pszczynie-pszczyna",
            "city_uid": 411,
            "meta": {
                "name": "System Rowerów Miejskich w Pszczynie",
                "city": "Pszczyna",
                "country": "PL",
                "latitude": 49.9757,
                "longitude": 18.9463
            }
        },
        {
            "domain": "zp",
            "tag": "zgierski-rower-miejski-zgierz",
            "city_uid": 412,
            "meta": {
                "name": "Zgierski Rower Miejski",
                "city": "Zgierz",
                "country": "PL",
                "latitude": 51.8602,
                "longitude": 19.4118
            }
        },
        {
            "domain": "pt",
            "tag": "tyski-rower-miejski-tychy",
            "city_uid": 413,
            "meta": {
                "name": "Tyski Rower Miejski",
                "city": "Tychy",
                "country": "PL",
                "latitude": 50.1294,
                "longitude": 18.994
            }
        },
        {
            "domain": "km",
            "tag": "ok-bike-kedzierzyn-kozle",
            "city_uid": 421,
            "meta": {
                "name": "OK Bike",
                "city": "Kędzierzyn-Koźle",
                "country": "PL",
                "latitude": 50.3417,
                "longitude": 18.2043
            }
        },
        {
            "domain": "kr",
            "tag": "kolobrzeski-rower-miejski-kolobrzeg",
            "city_uid": 422,
            "meta": {
                "name": "Kołobrzeski Rower Miejski",
                "city": "Kołobrzeg",
                "country": "PL",
                "latitude": 54.1762,
                "longitude": 15.5761
            }
        },
        {
            "domain": "sm",
            "tag": "siedlecki-rower-miejski-siedlce",
            "city_uid": 423,
            "meta": {
                "name": "Siedlecki Rower Miejski",
                "city": "Siedlce",
                "country": "PL",
                "latitude": 52.1668,
                "longitude": 22.2891
            }
        },
        {
            "domain": "pk",
            "tag": "kaliski-rower-miejski-kalisz",
            "city_uid": 431,
            "meta": {
                "name": "Kaliski Rower Miejski",
                "city": "Kalisz",
                "country": "PL",
                "latitude": 51.7608,
                "longitude": 18.0746
            }
        }
    ],
    "system": "nextbike",
    "class": "Nextbike"
}
