{
    "instances": [
        {
            "domain": "le",
            "tag": "nextbike-leipzig",
            "city_uid": 1,
            "meta": {
                "city": "Leipzig",
                "country": "DE",
                "latitude": 51.3415,
                "longitude": 12.3625
            }
        },
        {
            "domain": "dx",
            "tag": "mobibike-dresden",
            "city_uid": 685,
            "bbox": [
                [
                    50.8507,
                    13.4066
                ],
                [
                    51.2698,
                    14.0906
                ]
            ],
            "meta": {
                "name": "MOBIbike",
                "city": "Dresden",
                "country": "DE",
                "latitude": 51.0535,
                "longitude": 13.7387
            }
        },
        {
            "domain": "wn",
            "tag": "nextbike-wiesbaden",
            "city_uid": 7,
            "meta": {
                "city": "Wiesbaden",
                "country": "DE",
                "latitude": 50.0709,
                "longitude": 8.24322
            }
        },
        {
            "domain": "ff",
            "tag": "visa-frankfurt",
            "city_uid": 8,
            "meta": {
                "name": "VISA",
                "city": "Frankfurt",
                "country": "DE",
                "latitude": 50.1072,
                "longitude": 8.66375
            }
        },
        {
            "domain": "kg",
            "tag": "kvb-rad-koln",
            "city_uid": 14,
            "meta": {
                "name": "KVB Rad",
                "city": "K\u00f6ln",
                "country": "DE",
                "latitude": 50.9429,
                "longitude": 6.95649
            }
        },
        {
            "domain": "fg",
            "tag": "nextbike-karlsruhe",
            "city_uid": 21,
            "meta": {
                "name": "KVV.nextbike",
                "city": "Karlsruhe",
                "country": "DE",
                "latitude": 49.0102,
                "longitude": 8.41827
            }
        },
        {
            "domain": "dd",
            "tag": "nextbike-dusseldorf",
            "city_uid": 50,
            "meta": {
                "city": "D\u00fcsseldorf",
                "country": "DE",
                "latitude": 51.2243,
                "longitude": 6.77204
            }
        },
        {
            "domain": "ch",
            "tag": "nextbike-sursee",
            "city_uid": 88,
            "meta": {
                "city": "Sursee",
                "country": "CH",
                "latitude": 47.1713,
                "longitude": 8.10877
            }
        },
        {
            "domain": "ch",
            "tag": "nextbike-luzern",
            "city_uid": 126,
            "meta": {
                "city": "Luzern",
                "country": "CH",
                "latitude": 47.0472,
                "longitude": 8.30446
            }
        },
        {
            "domain": "lv",
            "tag": "sixt-riga",
            "city_uid": 128,
            "meta": {
                "name": "SiXT",
                "city": "R\u012bga",
                "country": "LV",
                "latitude": 56.9453,
                "longitude": 24.1033
            }
        },
        {
            "domain": "mr",
            "tag": "metropolradruhr-dortmund",
            "city_uid": 129,
            "meta": {
                "name": "metropolradruhr",
                "city": "Dortmund",
                "country": "DE",
                "latitude": 51.5141,
                "longitude": 7.46255
            }
        },
        {
            "domain": "mr",
            "tag": "metropolradruhr-bochum",
            "city_uid": 130,
            "meta": {
                "name": "metropolradruhr",
                "city": "Bochum",
                "country": "DE",
                "latitude": 51.4813,
                "longitude": 7.2133
            }
        },
        {
            "domain": "mr",
            "tag": "metropolradruhr-bottrop",
            "city_uid": 131,
            "meta": {
                "name": "metropolradruhr",
                "city": "Bottrop",
                "country": "DE",
                "latitude": 51.5263,
                "longitude": 6.94611
            }
        },
        {
            "domain": "mr",
            "tag": "metropolradruhr-duisburg",
            "city_uid": 132,
            "meta": {
                "name": "metropolradruhr",
                "city": "Duisburg",
                "country": "DE",
                "latitude": 51.4487,
                "longitude": 6.77513
            }
        },
        {
            "domain": "mr",
            "tag": "metropolradruhr-essen",
            "city_uid": 133,
            "meta": {
                "name": "metropolradruhr",
                "city": "Essen",
                "country": "DE",
                "latitude": 51.4425,
                "longitude": 7.02301
            }
        },
        {
            "domain": "mr",
            "tag": "metropolradruhr-gelsenkirchen",
            "city_uid": 134,
            "meta": {
                "name": "metropolradruhr",
                "city": "Gelsenkirchen",
                "country": "DE",
                "latitude": 51.5404,
                "longitude": 7.07039
            }
        },
        {
            "domain": "mr",
            "tag": "metropolradruhr-hamm",
            "city_uid": 135,
            "meta": {
                "name": "metropolradruhr",
                "city": "Hamm",
                "country": "DE",
                "latitude": 51.6775,
                "longitude": 7.84836
            }
        },
        {
            "domain": "mr",
            "tag": "metropolradruhr-herne",
            "city_uid": 136,
            "meta": {
                "name": "metropolradruhr",
                "city": "Herne",
                "country": "DE",
                "latitude": 51.5363,
                "longitude": 7.21493
            }
        },
        {
            "domain": "mr",
            "tag": "metropolradruhr-mulheim-adr",
            "city_uid": 137,
            "meta": {
                "name": "metropolradruhr",
                "city": "M\u00fclheim a.d.R.",
                "country": "DE",
                "latitude": 51.4308,
                "longitude": 6.87401
            }
        },
        {
            "domain": "mr",
            "tag": "metropolradruhr-oberhausen",
            "city_uid": 138,
            "meta": {
                "name": "metropolradruhr",
                "city": "Oberhausen",
                "country": "DE",
                "latitude": 51.4936,
                "longitude": 6.85169
            }
        },
        {
            "domain": "dc",
            "tag": "nextbike-potsdam",
            "city_uid": 158,
            "meta": {
                "city": "Potsdam",
                "country": "DE",
                "latitude": 52.3997,
                "longitude": 13.0676
            }
        },
        {
            "domain": "dj",
            "tag": "nextbike-gutersloh",
            "city_uid": 160,
            "meta": {
                "city": "G\u00fctersloh",
                "country": "DE",
                "latitude": 51.9049,
                "longitude": 8.39275
            }
        },
        {
            "domain": "ur",
            "tag": "usedomrad-usedom",
            "city_uid": 176,
            "meta": {
                "name": "UsedomRad",
                "city": "Usedom",
                "country": "DE",
                "latitude": 53.9779,
                "longitude": 13.9925
            }
        },
        {
            "domain": "nn",
            "tag": "nextbike-norderstedt",
            "city_uid": 177,
            "meta": {
                "city": "Norderstedt",
                "country": "DE",
                "latitude": 53.6969,
                "longitude": 10.002
            }
        },
        {
            "domain": "cy",
            "tag": "nextbike-limassol",
            "city_uid": 190,
            "meta": {
                "city": "Limassol",
                "country": "CY",
                "latitude": 34.6823,
                "longitude": 33.0464
            }
        },
        {
            "domain": "vn",
            "tag": "vrn-heidelberg",
            "city_uid": 194,
            "meta": {
                "name": "VRN",
                "city": "Heidelberg",
                "country": "DE",
                "latitude": 49.4023,
                "longitude": 8.67577
            }
        },
        {
            "domain": "vn",
            "tag": "vrn-mannheim",
            "city_uid": 195,
            "meta": {
                "name": "VRN",
                "city": "Mannheim",
                "country": "DE",
                "latitude": 49.4869,
                "longitude": 8.45638
            }
        },
        {
            "domain": "si",
            "tag": "stadtrad-innsbruck",
            "city_uid": 199,
            "meta": {
                "name": "Stadtrad",
                "city": "Innsbruck",
                "country": "AT",
                "latitude": 47.2632,
                "longitude": 11.3961
            }
        },
        {
            "domain": "cy",
            "tag": "nextbike-nicosia",
            "city_uid": 206,
            "meta": {
                "city": "Nicosia",
                "country": "CY",
                "latitude": 35.1728,
                "longitude": 33.3653
            }
        },
        {
            "domain": "hd",
            "tag": "nextbike-zagreb",
            "meta": {
                "city": "Zagreb",
                "country": "HR",
                "latitude": 45.7984,
                "longitude": 15.9789
            }
        },
        {
            "domain": "gg",
            "tag": "nextbike-glasgow",
            "city_uid": 237,
            "meta": {
                "city": "Glasgow",
                "country": "GB",
                "latitude": 55.8589,
                "longitude": -4.25549
            }
        },
        {
            "domain": "bu",
            "tag": "belfastbikes-belfast",
            "city_uid": 238,
            "meta": {
                "name": "BelfastBikes",
                "city": "Belfast",
                "country": "GB",
                "latitude": 54.5969,
                "longitude": -5.92918
            }
        },
        {
            "domain": "uk",
            "tag": "nextbike-stirling",
            "city_uid": 243,
            "meta": {
                "city": "Stirling",
                "country": "GB",
                "latitude": 56.1165,
                "longitude": -3.9369
            }
        },
        {
            "domain": "bc",
            "tag": "grad-sibenik-sibenik",
            "city_uid": 248,
            "meta": {
                "name": "Grad \u0160ibenik",
                "city": "\u0160ibenik",
                "country": "HR",
                "latitude": 43.733,
                "longitude": 15.8982
            }
        },
        {
            "domain": "vn",
            "tag": "vrn-ludwigshafen",
            "city_uid": 266,
            "meta": {
                "name": "VRN",
                "city": "Ludwigshafen",
                "country": "DE",
                "latitude": 49.4741,
                "longitude": 8.43287
            }
        },
        {
            "domain": "vn",
            "tag": "vrn-speyer",
            "city_uid": 278,
            "meta": {
                "name": "VRN",
                "city": "Speyer",
                "country": "DE",
                "latitude": 49.3126,
                "longitude": 8.45295
            }
        },
        {
            "domain": "vn",
            "tag": "vrn-landau",
            "city_uid": 678,
            "meta": {
                "name": "VRN",
                "city": "Landau in der Pfalz",
                "country": "DE",
                "latitude": 49.1975,
                "longitude": 8.11693
            }
        },
        {
            "domain": "nu",
            "tag": "nextbike-lviv",
            "city_uid": 280,
            "meta": {
                "city": "Lviv",
                "country": "UA",
                "latitude": 49.8402,
                "longitude": 24.0182
            }
        },
        {
            "domain": "nu",
            "tag": "nextbike-ivano-frankivsk",
            "city_uid": 525,
            "meta": {
                "city": "Ivano Frankivsk",
                "country": "UA",
                "latitude": 48.9281,
                "longitude": 24.7103
            }
        },
        {
            "domain": "kc",
            "tag": "grad-karlovac-karlovac",
            "city_uid": 305,
            "meta": {
                "name": "Grad Karlovac",
                "city": "Karlovac",
                "country": "HR",
                "latitude": 45.4905,
                "longitude": 15.5503
            }
        },
        {
            "domain": "sb",
            "tag": "grad-slavonski-brod-slavonski-brod",
            "city_uid": 308,
            "meta": {
                "name": "Grad Slavonski Brod",
                "city": "Slavonski Brod",
                "country": "HR",
                "latitude": 45.1656,
                "longitude": 18.0183
            }
        },
        {
            "domain": "ku",
            "tag": "santander-cycles-mk-milton-keynes",
            "city_uid": 320,
            "meta": {
                "name": "Santander Cycles MK",
                "city": "Milton Keynes",
                "country": "GB",
                "latitude": 52.0406,
                "longitude": -0.759417
            }
        },
        {
            "domain": "ch",
            "tag": "nextbike-hergiswil",
            "city_uid": 323,
            "meta": {
                "city": "Hergiswil",
                "country": "CH",
                "latitude": 46.9905,
                "longitude": 8.30829
            }
        },
        {
            "domain": "br",
            "tag": "opcina-brinje-brinje",
            "city_uid": 325,
            "meta": {
                "name": "Op\u0107ina Brinje",
                "city": "Brinje",
                "country": "HR",
                "latitude": 44.9977,
                "longitude": 15.1258
            }
        },
        {
            "domain": "zd",
            "tag": "grad-zadar-zadar",
            "city_uid": 327,
            "meta": {
                "name": "Grad Zadar",
                "city": "Zadar",
                "country": "HR",
                "latitude": 44.0058,
                "longitude": 15.2183
            }
        },
        {
            "domain": "vn",
            "tag": "vrn-bensheim",
            "city_uid": 332,
            "meta": {
                "name": "VRN",
                "city": "Bensheim",
                "country": "DE",
                "latitude": 49.6803,
                "longitude": 8.6189
            }
        },
        {
            "domain": "ig",
            "tag": "grad-ivanic-grad-ivanic-grad",
            "city_uid": 337,
            "meta": {
                "name": "Grad Ivani\u0107-Grad",
                "city": "Ivanic Grad",
                "country": "HR",
                "latitude": 45.7062,
                "longitude": 16.3919
            }
        },
        {
            "domain": "ba",
            "tag": "nextbike-sarajevo",
            "city_uid": 350,
            "meta": {
                "city": "Sarajevo",
                "country": "BA",
                "latitude": 43.85,
                "longitude": 18.39
            }
        },
        {
            "domain": "bn",
            "tag": "nextbike-berlin",
            "city_uid": 362,
            "meta": {
                "city": "Berlin",
                "country": "DE",
                "latitude": 52.5087,
                "longitude": 13.3563
            }
        },
        {
            "domain": "bq",
            "tag": "wk-bike-bremen-bremen",
            "meta": {
                "name": "Bre.Bike",
                "city": "Bremen",
                "country": "DE",
                "latitude": 53.0781,
                "longitude": 8.80132
            }
        },
        {
            "domain": "vn",
            "tag": "vrn-worms",
            "city_uid": 382,
            "meta": {
                "name": "VRN",
                "city": "Worms",
                "country": "DE",
                "latitude": 49.6394,
                "longitude": 8.34618
            }
        },
        {
            "domain": "ch",
            "tag": "nextbike-stans",
            "city_uid": 383,
            "meta": {
                "city": "Stans",
                "country": "CH",
                "latitude": 46.9593,
                "longitude": 8.36836
            }
        },
        {
            "domain": "ch",
            "tag": "nextbike-stansstad",
            "city_uid": 388,
            "meta": {
                "city": "Stansstad",
                "country": "CH",
                "latitude": 46.9801,
                "longitude": 8.34098
            }
        },
        {
            "domain": "ch",
            "tag": "nextbike-horw",
            "city_uid": 391,
            "meta": {
                "city": "Horw",
                "country": "CH",
                "latitude": 47.0188,
                "longitude": 8.30828
            }
        },
        {
            "domain": "vn",
            "tag": "vrn-burstadt",
            "city_uid": 392,
            "meta": {
                "name": "VRN",
                "city": "B\u00fcrstadt",
                "country": "DE",
                "latitude": 49.6461,
                "longitude": 8.44917
            }
        },
        {
            "domain": "ka",
            "tag": "nextbike-klagenfurt",
            "city_uid": 396,
            "meta": {
                "city": "Klagenfurt",
                "country": "AT",
                "latitude": 46.6335,
                "longitude": 14.3085
            }
        },
        {
            "domain": "vn",
            "tag": "vrn-kaiserslautern",
            "city_uid": 398,
            "meta": {
                "name": "VRN",
                "city": "Kaiserslautern",
                "country": "DE",
                "latitude": 49.4413,
                "longitude": 7.75566
            }
        },
        {
            "domain": "el",
            "tag": "sitycleta-las-palmas-las-palmas-de-gran-canaria",
            "city_uid": 408,
            "meta": {
                "name": "Sitycleta",
                "city": "Las Palmas de Gran Canaria",
                "country": "ES",
                "latitude": 28.1236,
                "longitude": -15.4366
            }
        },
        {
            "domain": "cg",
            "tag": "grad-velika-gorica-velika-gorica",
            "city_uid": 415,
            "meta": {
                "name": "Grad Velika Gorica",
                "city": "Velika Gorica",
                "country": "HR",
                "latitude": 45.7161,
                "longitude": 16.0683
            }
        },
        {
            "domain": "cs",
            "tag": "grad-sisak-sisak",
            "city_uid": 416,
            "meta": {
                "name": "Grad Sisak",
                "city": "Sisak",
                "country": "HR",
                "latitude": 45.4875,
                "longitude": 16.3753
            }
        },
        {
            "domain": "cj",
            "tag": "jastrebarsko-jastrebarsko",
            "city_uid": 425,
            "meta": {
                "city": "Jastrebarsko",
                "country": "HR",
                "latitude": 45.6692,
                "longitude": 15.6541
            }
        },
        {
            "domain": "gd",
            "tag": "grad-drnis-drnis",
            "city_uid": 426,
            "meta": {
                "city": "Drni\u0161",
                "country": "HR",
                "latitude": 43.8425,
                "longitude": 16.1197
            }
        },
        {
            "domain": "bz",
            "tag": "nextbike-tuzla",
            "city_uid": 427,
            "meta": {
                "city": "Tuzla",
                "country": "BA",
                "latitude": 44.5392,
                "longitude": 18.675
            }
        },
        {
            "domain": "nm",
            "tag": "nextbike-marburg",
            "city_uid": 438,
            "meta": {
                "city": "Marburg",
                "country": "DE",
                "latitude": 50.8019,
                "longitude": 8.76444
            }
        },
        {
            "domain": "bh",
            "tag": "bubi",
            "city_uid": 699,
            "meta": {
                "latitude": 47.497912,
                "longitude": 19.040235,
                "city": "Budapest",
                "name": "MOL Bubi",
                "country": "HU"
            }
        },
        {
            "domain": "do",
            "tag": "nextbike-russelsheim-am-main",
            "city_uid": 439,
            "meta": {
                "city": "R\u00fcsselsheim am Main",
                "country": "DE",
                "latitude": 49.9881,
                "longitude": 8.42142
            }
        },
        {
            "domain": "vn",
            "tag": "vrn-heppenheim",
            "city_uid": 448,
            "meta": {
                "name": "VRN",
                "city": "Heppenheim",
                "country": "DE",
                "latitude": 49.6431,
                "longitude": 8.63889
            }
        },
        {
            "domain": "dk",
            "tag": "nextbike-kassel",
            "city_uid": 462,
            "meta": {
                "city": "Kassel",
                "country": "DE",
                "latitude": 51.3127,
                "longitude": 9.47975
            }
        },
        {
            "domain": "ch",
            "tag": "nextbike-sarnen",
            "city_uid": 463,
            "meta": {
                "city": "Sarnen",
                "country": "CH",
                "latitude": 46.8963,
                "longitude": 8.24614
            }
        },
        {
            "domain": "ch",
            "tag": "nextbike-wolfenschiessen",
            "city_uid": 464,
            "meta": {
                "city": "Wolfenschiessen",
                "country": "CH",
                "latitude": 46.9079,
                "longitude": 8.39767
            }
        },
        {
            "domain": "ch",
            "tag": "nextbike-oberdorf",
            "city_uid": 465,
            "meta": {
                "city": "Oberdorf",
                "country": "CH",
                "latitude": 46.9563,
                "longitude": 8.3884
            }
        },
        {
            "domain": "ng",
            "tag": "nextbike-giessen",
            "city_uid": 467,
            "meta": {
                "city": "Gie\u00dfen",
                "country": "DE",
                "latitude": 50.5943,
                "longitude": 8.68097
            }
        },
        {
            "domain": "vn",
            "tag": "vrn-weinheim",
            "city_uid": 469,
            "meta": {
                "name": "VRN",
                "city": "Weinheim",
                "country": "DE",
                "latitude": 49.545,
                "longitude": 8.66027
            }
        },
        {
            "domain": "vn",
            "tag": "vrn-schwetzingen",
            "city_uid": 480,
            "meta": {
                "name": "VRN",
                "city": "Schwetzingen",
                "country": "DE",
                "latitude": 49.3863,
                "longitude": 8.5756
            }
        },
        {
            "domain": "ch",
            "tag": "nextbike-ennetmoos",
            "city_uid": 483,
            "meta": {
                "city": "Ennetmoos",
                "country": "CH",
                "latitude": 46.9573,
                "longitude": 8.3377
            }
        },
        {
            "domain": "vn",
            "tag": "vrn-eppelheim",
            "city_uid": 484,
            "meta": {
                "name": "VRN",
                "city": "Eppelheim",
                "country": "DE",
                "latitude": 49.4025,
                "longitude": 8.6331
            }
        },
        {
            "domain": "uu",
            "tag": "santander-cycles-swansea-swansea-university",
            "city_uid": 486,
            "meta": {
                "name": "Santander Cycles",
                "city": "Swansea",
                "country": "GB",
                "latitude": 51.6106,
                "longitude": -3.9764
            }
        },
        {
            "domain": "bj",
            "tag": "bl-bike-banja-luka",
            "city_uid": 494,
            "meta": {
                "name": "BL bike",
                "city": "Banja Luka",
                "country": "BA",
                "latitude": 44.775,
                "longitude": 17.1994
            }
        },
        {
            "domain": "nu",
            "tag": "lviv-odessa",
            "city_uid": 525,
            "meta": {
                "city": "Odessa",
                "country": "UA",
                "latitude": 46.463,
                "longitude": 30.7042
            }
        },
        {
            "domain": "sn",
            "tag": "santander-monchengladbach",
            "city_uid": 530,
            "meta": {
                "name": "Santander M\u00f6nchengladbach",
                "city": "M\u00f6nchengladbach",
                "country": "DE",
                "latitude": 51.1817,
                "longitude": 6.43578
            }
        },
        {
            "domain": "cn",
            "tag": "nomagobikes-celje",
            "city_uid": 531,
            "meta": {
                "name": "NomagoBikes",
                "city": "Celje",
                "country": "SI",
                "latitude": 46.2388,
                "longitude": 15.2693
            }
        },
        {
            "domain": "cn",
            "tag": "nomagobikes-lasko",
            "city_uid": 535,
            "meta": {
                "name": "NomagoBikes",
                "city": "La\u0161ko",
                "country": "SI",
                "latitude": 46.1458,
                "longitude": 15.2312
            }
        },
        {
            "domain": "hb",
            "tag": "nextbike-helbi",
            "meta": {
                "city": "Kreis Soest",
                "country": "DE",
                "latitude": 51.5632,
                "longitude": 8.11451
            }
        },
        {
            "domain": "ak",
            "tag": "bikekia-zilina",
            "city_uid": 538,
            "meta": {
                "name": "BikeKia",
                "city": "\u017dilina",
                "country": "SK",
                "latitude": 49.2217,
                "longitude": 18.7572
            }
        },
        {
            "domain": "uv",
            "tag": "nextbike-vinnytsia",
            "city_uid": 546,
            "meta": {
                "city": "Vinnytsia",
                "country": "UA",
                "latitude": 49.2328,
                "longitude": 28.4625
            }
        },
        {
            "domain": "wa",
            "tag": "nextbike-bonn",
            "meta": {
                "name": "Welo",
                "city": "Bonn",
                "country": "DE",
                "latitude": 50.7367,
                "longitude": 7.09541
            }
        },
        {
            "domain": "df",
            "tag": "frelo-freiburg",
            "city_uid": 619,
            "meta": {
                "name": "Frelo",
                "city": "Freiburg",
                "country": "DE",
                "latitude": 47.9958,
                "longitude": 7.84453
            }
        },
        {
            "domain": "wr",
            "tag": "wienmobil-rad",
            "city_uid": 748,
            "meta": {
                "name": "WienMobil Rad",
                "city": "Wien",
                "country": "AT",
                "latitude": 48.2081743,
                "longitude": 16.3738189
            }
        },
        {
            "domain": "sl",
            "tag": "alsa-nextbike-leon",
            "city_uid": 701,
            "meta": {
                "latitude": 42.5987263,
                "city": "Le\u00f3n",
                "name": "Alsa nextbike Le\u00f3n",
                "longitude": -5.5670959,
                "country": "ES",
                "company": [
                    "Leonbici Nextbike Gmbh Y Autobuses Urbanos De Leon S.a. Ute"
                ]
            }
        },
        {
            "domain": "vu",
            "tag": "grad-vukovar",
            "city_uid": 328,
            "meta": {
                "name": "Grad Vukovar (Croatia)",
                "city": "Vukovar",
                "country": "HR",
                "latitude": 45.3575,
                "longitude": 18.9895
            }
        },
        {
            "domain": "sg",
            "tag": "grad-zapresic",
            "city_uid": 723,
            "meta": {
                "name": "Grad Zapre\u0161i\u0107 (Croatia)",
                "city": "Zapre\u0161i\u0107",
                "country": "HR",
                "latitude": 45.8622,
                "longitude": 15.8049
            }
        },
        {
            "domain": "ub",
            "tag": "santander-brunel",
            "city_uid": 487,
            "meta": {
                "name": "Santander Cycles - Brunel",
                "city": "Brunel University",
                "country": "GB",
                "latitude": 51.5463,
                "longitude": -0.48048
            }
        },
        {
            "domain": "ds",
            "tag": "sap-walldorf",
            "city_uid": 592,
            "meta": {
                "name": "SAP Walldorf",
                "city": "Walldorf",
                "country": "DE",
                "latitude": 49.2945,
                "longitude": 8.62324
            }
        },
        {
            "domain": "cc",
            "tag": "nomago-ljubljana",
            "city_uid": 717,
            "meta": {
                "name": "Nomago Bikes - LJUBLJANA",
                "city": "Ljubljana",
                "country": "SI",
                "latitude": 46.0577,
                "longitude": 14.5013
            }
        },
        {
            "domain": "dr",
            "tag": "rvk",
            "city_uid": 648,
            "meta": {
                "name": "RVK",
                "city": "RVK e-Bike",
                "country": "DE",
                "latitude": 50.7069,
                "longitude": 6.87607
            }
        },
        {
            "domain": "dw",
            "tag": "wupsi",
            "city_uid": 607,
            "meta": {
                "name": "wupsiRad Leverkusen",
                "city": "Leverkusen",
                "country": "DE",
                "latitude": 51.0732,
                "longitude": 7.00814
            }
        },
        {
            "domain": "ls",
            "tag": "lovesharing-canary-islands-gran-canaria",
            "city_uid": 638,
            "meta": {
                "name": "Lovesharing (Canary Islands)",
                "city": "Gran Canaria",
                "country": "ES",
                "latitude": 27.8154,
                "longitude": -15.5182
            }
        },
        {
            "domain": "ls",
            "tag": "lovesharing-canary-islands-lanzarote",
            "city_uid": 674,
            "meta": {
                "name": "Lovesharing (Canary Islands)",
                "city": "Lanzarote",
                "country": "ES",
                "latitude": 29.0491,
                "longitude": -13.5729
            }
        },
        {
            "domain": "ls",
            "tag": "lovesharing-canary-islands-fuerteventura",
            "city_uid": 675,
            "meta": {
                "name": "Lovesharing (Canary Islands)",
                "city": "Fuerteventura",
                "country": "ES",
                "latitude": 28.3584,
                "longitude": -14.064
            }
        },
        {
            "domain": "dv",
            "tag": "vagrad",
            "city_uid": 626,
            "meta": {
                "name": "VAG_Rad",
                "city": "N\u00fcrnberg",
                "country": "DE",
                "latitude": 49.4487,
                "longitude": 11.0794,
                "company": [
                    "VAG Verkehrs-Aktiengesellschaft"
                ]
            }
        },
        {
            "domain": "gt",
            "tag": "nextbike-grad-split",
            "meta": {
                "city": "Grad Split",
                "country": "HR",
                "latitude": 43.5162,
                "longitude": 16.4637
            }
        },
        {
            "domain": "to",
            "tag": "nextbike-ostrava",
            "meta": {
                "name": "nextbike Ostrava",
                "city": "Ostrava",
                "country": "CZ",
                "latitude": 49.8344,
                "longitude": 18.2823
            }
        },
        {
            "domain": "dh",
            "tag": "sprintrad",
            "city_uid": 87,
            "meta": {
                "name": "sprintRAD",
                "city": "Hannover",
                "country": "DE",
                "latitude": 52.3721,
                "longitude": 9.73569
            }
        },
        {
            "domain": "td",
            "tag": "nextbike-berounsko",
            "meta": {
                "name": "nextbike Berounsko",
                "city": "Berounsko",
                "country": "CZ",
                "latitude": 49.9616,
                "longitude": 14.064
            }
        },
        {
            "domain": "da",
            "tag": "ready4green-graben",
            "city_uid": 647,
            "meta": {
                "name": "Graben - ready4green",
                "city": "Graben",
                "country": "DE",
                "latitude": 51.1242,
                "longitude": 10.8984
            }
        },
        {
            "domain": "zg",
            "tag": "styr-staell-goeteborg",
            "city_uid": 658,
            "meta": {
                "name": "Styr & St\u00e4ll (Sweden, G\u00f6teborg)",
                "city": "G\u00f6teborg",
                "country": "SE",
                "latitude": 57.6902,
                "longitude": 11.9881
            }
        },
        {
            "domain": "dn",
            "tag": "nibelungen-bike-braunschweig",
            "city_uid": 657,
            "meta": {
                "name": "Nibelungen-Bike",
                "city": "Braunschweig",
                "country": "DE",
                "latitude": 52.2597,
                "longitude": 10.5307
            }
        },
        {
            "domain": "te",
            "tag": "nextbike-brno",
            "meta": {
                "name": "nextbike Brno",
                "city": "Brno",
                "country": "CZ",
                "latitude": 49.1911,
                "longitude": 16.6148
            }
        },
        {
            "domain": "tg",
            "tag": "nextbike-praha",
            "meta": {
                "name": "nextbike Praha",
                "city": "Praha",
                "country": "CZ",
                "latitude": 50.0592,
                "longitude": 14.5761
            }
        },
        {
            "domain": "ti",
            "tag": "nextbike-olomouc",
            "meta": {
                "name": "nextbike Olomouc",
                "city": "Olomouc",
                "country": "CZ",
                "latitude": 49.5929,
                "longitude": 17.2459
            }
        },
        {
            "domain": "tk",
            "tag": "nextbike-kladno",
            "meta": {
                "name": "nextbike Kladno",
                "city": "Kladno",
                "country": "CZ",
                "latitude": 50.1435,
                "longitude": 14.1082
            }
        },
        {
            "domain": "tj",
            "tag": "nextbike-opava",
            "meta": {
                "name": "nextbike Opava",
                "city": "Opava",
                "country": "CZ",
                "latitude": 49.9447,
                "longitude": 17.8907
            }
        },
        {
            "domain": "dg",
            "tag": "nextbike-bielefeld",
            "city_uid": 16,
            "meta": {
                "name": "meinSiggi",
                "city": "Bielefeld",
                "country": "DE",
                "latitude": 52.0257,
                "longitude": 8.53286
            }
        },
        {
            "domain": "ac",
            "tag": "bergisches-e-bike",
            "city_uid": 676,
            "meta": {
                "name": "Bergisches e-Bike",
                "city": "Bergisches e-Bike",
                "country": "DE",
                "latitude": 51.0192,
                "longitude": 7.18025
            }
        },
        {
            "domain": "tl",
            "tag": "nextbike-hradec-kralove",
            "meta": {
                "name": "nextbike Hradec Kr\u00e1lov\u00e9",
                "city": "Hradec Kr\u00e1lov\u00e9",
                "country": "CZ",
                "latitude": 50.2079,
                "longitude": 15.8334
            }
        },
        {
            "domain": "tq",
            "tag": "nextbike-mladoboleslavsko",
            "meta": {
                "city": "Mlad\u00e1 Boleslav",
                "country": "CZ",
                "latitude": 50.4278,
                "longitude": 14.8999
            }
        },
        {
            "domain": "al",
            "tag": "citybikelinz",
            "city_uid": 692,
            "meta": {
                "name": "city bike Linz",
                "city": "Linz",
                "country": "AT",
                "latitude": 48.3003,
                "longitude": 14.2843
            }
        },
        {
            "domain": "ce",
            "tag": "nomago-gorica",
            "city_uid": 688,
            "meta": {
                "name": "Nomago Bikes - GO2GO",
                "city": "Nova Gorica",
                "country": "SI",
                "latitude": 45.9576,
                "longitude": 13.6406
            }
        },
        {
            "domain": "ts",
            "tag": "nextbike-frydek-mistek",
            "meta": {
                "city": "Fr\u00fddek-M\u00edstek",
                "country": "CZ",
                "latitude": 49.6832,
                "longitude": 18.3457
            }
        },
        {
            "domain": "tt",
            "tag": "nextbike-uherske-hradiste",
            "meta": {
                "name": "nextbike Uhersk\u00e9 Hradi\u0161t\u011b",
                "city": "Uhersk\u00e9 Hradi\u0161t\u011b",
                "country": "CZ",
                "latitude": 49.0678,
                "longitude": 17.4665
            }
        },
        {
            "domain": "tv",
            "tag": "nextbike-zlin",
            "meta": {
                "name": "nextbike Zl\u00edn",
                "city": "Zl\u00edn",
                "country": "CZ",
                "latitude": 49.238,
                "longitude": 17.6788
            }
        },
        {
            "domain": "eb",
            "tag": "eifel",
            "city_uid": 706,
            "meta": {
                "name": "Eifel e-Bike",
                "city": "Eifel e-Bike",
                "country": "DE",
                "latitude": 50.5771,
                "longitude": 6.64673
            }
        },
        {
            "domain": "tx",
            "tag": "nextbike-rychnovsko",
            "meta": {
                "name": "nextbike Rychnovsko",
                "city": "Rychnovsko",
                "country": "CZ",
                "latitude": 50.1668,
                "longitude": 16.2828
            }
        },
        {
            "domain": "ty",
            "tag": "nextbike-pisek",
            "meta": {
                "name": "nextbike P\u00edsek",
                "city": "P\u00edsek",
                "country": "CZ",
                "latitude": 49.3051,
                "longitude": 14.1463
            }
        },
        {
            "domain": "cf",
            "tag": "nomago-zanaprej",
            "city_uid": 725,
            "meta": {
                "name": "Nomago Bikes - ZANAPREJ",
                "city": "Zagorje ob Savi",
                "country": "SI",
                "latitude": 46.1392,
                "longitude": 14.9785
            }
        },
        {
            "domain": "ib",
            "tag": "nextbike-bergamo",
            "city_uid": 728,
            "meta": {
                "name": "nextbike Bergamo",
                "city": "Bergamo",
                "country": "IT",
                "latitude": 45.6986,
                "longitude": 9.67567
            }
        },
        {
            "domain": "em",
            "tag": "emobi-osijek",
            "city_uid": 734,
            "meta": {
                "name": "eMobi (Croatia)",
                "city": "Osijek",
                "country": "HR",
                "latitude": 45.554,
                "longitude": 18.6943
            }
        },
        {
            "domain": "ia",
            "tag": "arval-scandicci",
            "city_uid": 746,
            "meta": {
                "name": "ARVAL",
                "city": "Scandicci",
                "country": "IT",
                "latitude": 43.7701,
                "longitude": 11.1592
            }
        },
        {
            "domain": "wo",
            "tag": "nextbike-oldenburg",
            "city_uid": 754,
            "meta": {
                "name": "OLi-Bike",
                "city": "Oldenburg",
                "country": "DE",
                "latitude": 53.1448,
                "longitude": 8.22485,
                "company": [
                    "Bremer Tageszeitungen AG"
                ]
            }
        },
        {
            "domain": "ey",
            "tag": "nextbike-urdaibai",
            "city_uid": 772,
            "meta": {
                "name": "BBK Klimabizi",
                "city": "Urdaibai",
                "country": "ES",
                "latitude": 43.395,
                "longitude": -2.68815
            }
        },
        {
            "domain": "um",
            "tag": "mvrad-hq",
            "meta": {
                "name": "MV-Rad",
                "city": "MV-Rad",
                "country": "DE",
                "latitude": 53.6707,
                "longitude": 12.4255
            }
        },
        {
            "domain": "ug",
            "tag": "greifswald",
            "city_uid": 759,
            "meta": {
                "name": "StadtRad Greifswald",
                "city": "Greifswald (StadtRad)",
                "country": "DE",
                "latitude": 54.0961,
                "longitude": 13.3787
            }
        },
        {
            "domain": "tf",
            "tag": "nextbike-dvur-kralove",
            "meta": {
                "name": "nextbike Dv\u016fr Kr\u00e1lov\u00e9",
                "city": "Dv\u016fr Kr\u00e1lov\u00e9",
                "country": "CZ",
                "latitude": 50.4278,
                "longitude": 15.8162
            }
        },
        {
            "domain": "vt",
            "tag": "vvt-regiorad",
            "meta": {
                "name": "VVT REGIORAD",
                "city": "Tirol",
                "country": "AT",
                "latitude": 47.2,
                "longitude": 11.532
            }
        },
        {
            "domain": "vr",
            "tag": "nextbike-vrchlabi",
            "meta": {
                "name": "nextbike Vrchlab\u00ed",
                "city": "Vrchlab\u00ed",
                "country": "CZ",
                "latitude": 50.6222,
                "longitude": 15.6126
            }
        },
        {
            "domain": "wd",
            "tag": "winsenrad",
            "city_uid": 794,
            "meta": {
                "name": "WinsenRad",
                "city": "Winsen (Luhe)",
                "country": "DE",
                "latitude": 53.3547,
                "longitude": 10.2067
            }
        },
        {
            "domain": "ea",
            "tag": "bicipalma",
            "city_uid": 789,
            "meta": {
                "latitude": 39.57119,
                "city": "Palma",
                "name": "Bicipalma",
                "longitude": 2.646634,
                "country": "ES"
            }
        },
        {
            "domain": "hg",
            "tag": "heraeus-hanau",
            "city_uid": 301,
            "meta": {
                "name": "Heraeus Hanau",
                "city": "Hanau",
                "country": "DE",
                "latitude": 50.1387,
                "longitude": 8.94429,
                "company": [
                    "Heraeus Holding GmbH"
                ]
            }
        },
        {
            "domain": "ol",
            "tag": "stari-grad-hvar",
            "city_uid": 745,
            "meta": {
                "name": "Hvar",
                "city": "Stari Grad",
                "country": "HR",
                "latitude": 43.1841,
                "longitude": 16.5886
            }
        },
        {
            "domain": "re",
            "tag": "revgmobic",
            "city_uid": 817,
            "meta": {
                "name": "mobic",
                "city": "REVG",
                "country": "DE",
                "latitude": 50.8493,
                "longitude": 6.6687,
                "company": [
                    "Rhein-Erft-Verkehrsgesellschaft mbH"
                ]
            }
        },
        {
            "domain": "gh",
            "tag": "westbike-erkelenz",
            "city_uid": 807,
            "meta": {
                "name": "westBike",
                "city": "Erkelenz",
                "country": "DE",
                "latitude": 51.0753,
                "longitude": 6.31233
            }
        },
        {
            "domain": "gh",
            "tag": "westbike-geilenkirchen",
            "city_uid": 808,
            "meta": {
                "name": "westBike",
                "city": "Geilenkirchen",
                "country": "DE",
                "latitude": 50.9671,
                "longitude": 6.11886
            }
        },
        {
            "domain": "gh",
            "tag": "westbike-heinsberg",
            "city_uid": 809,
            "meta": {
                "name": "westBike",
                "city": "Heinsberg",
                "country": "DE",
                "latitude": 51.0597,
                "longitude": 6.11849
            }
        },
        {
            "domain": "gh",
            "tag": "westbike-hueckelhoven",
            "city_uid": 810,
            "meta": {
                "name": "westBike",
                "city": "H\u00fcckelhoven",
                "country": "DE",
                "latitude": 51.0529,
                "longitude": 6.21933
            }
        },
        {
            "domain": "gh",
            "tag": "westbike-wegberg",
            "city_uid": 811,
            "meta": {
                "name": "westBike",
                "city": "Wegberg",
                "country": "DE",
                "latitude": 51.1427,
                "longitude": 6.2813
            }
        },
        {
            "domain": "ed",
            "tag": "edeka-gruenheide-mark",
            "city_uid": 819,
            "meta": {
                "name": "EDEKA Gr\u00fcnheide",
                "city": "Gr\u00fcnheide (Mark)",
                "country": "DE",
                "latitude": 52.4247,
                "longitude": 13.8203
            }
        },
        {
            "domain": "cd",
            "tag": "nomago-gorizia",
            "city_uid": 771,
            "meta": {
                "name": "GO2GO - Gorizia",
                "city": "Gorizia",
                "country": "IT",
                "latitude": 45.9469,
                "longitude": 13.6208
            }
        },
        {
            "domain": "mz",
            "tag": "mvg-meinrad-nextbike-mainz",
            "city_uid": 755,
            "meta": {
                "name": "meinRad MVG Mainz",
                "city": "Mainz",
                "country": "DE",
                "latitude": 50.0153,
                "longitude": 8.252,
                "company": [
                    "Mainzer Verkehrsgesellschaft mbH"
                ]
            }
        },
        {
            "domain": "nr",
            "tag": "nextbike-prerov",
            "meta": {
                "name": "nextbike Prerov",
                "city": "Prerov",
                "country": "CZ",
                "latitude": 49.4574,
                "longitude": 17.4408
            }
        },
        {
            "domain": "ad",
            "tag": "bicimislata",
            "city_uid": 835,
            "meta": {
                "name": "BiciMislata",
                "city": "Mislata",
                "country": "ES",
                "latitude": 39.4763,
                "longitude": -0.4182,
                "company": [
                    "Movilidad Urbana Sostenible, S.L"
                ]
            }
        },
        {
            "domain": "aa",
            "tag": "biciarteixo",
            "city_uid": 874,
            "meta": {
                "name": "biciArteixo",
                "city": "Arteixo",
                "country": "ES",
                "latitude": 43.3053,
                "longitude": -8.5069,
                "company": [
                    "Servizos Urbanos Municipais de Arteixo, S. A."
                ]
            }
        },
        {
            "domain": "oy",
            "tag": "ontibici",
            "city_uid": 951,
            "meta": {
                "name": "Ontibici",
                "city": "Ontinyent",
                "country": "ES",
                "latitude": 38.8211,
                "longitude": -0.609,
                "company": [
                    "Movilidad Urbana Sostenible S.L."
                ]
            }
        },
        {
            "domain": "ek",
            "tag": "tuebici",
            "city_uid": 914,
            "meta": {
                "name": "TUeBICI",
                "city": "Santander",
                "country": "ES",
                "latitude": 43.46230569999999,
                "longitude": -3.8099803,
                "company": [
                    "UTE BICIS SANTANDER"
                ]
            }
        },
        {
            "domain": "nh",
            "tag": "nextbike-hodonin",
            "meta": {
                "name": "nextbike Hodon\u00edn",
                "city": "Hodon\u00edn",
                "country": "CZ",
                "latitude": 48.8489,
                "longitude": 17.1327
            }
        },
        {
            "domain": "nt",
            "tag": "nextbike-jicin",
            "meta": {
                "name": "nextbike Ji\u010d\u00edn",
                "city": "Ji\u010d\u00edn",
                "country": "CZ",
                "latitude": 50.4367,
                "longitude": 15.3743
            }
        },
        {
            "domain": "uo",
            "tag": "nextbike-most",
            "meta": {
                "name": "nextbike Most",
                "city": "Most",
                "country": "CZ",
                "latitude": 50.5014,
                "longitude": 13.6361
            }
        },
        {
            "domain": "cu",
            "tag": "nextbike-olbramovicevotice",
            "meta": {
                "name": "nextbike OlbramoviceVotice",
                "city": "Olbramovice/Votice",
                "country": "CZ",
                "latitude": 49.6525,
                "longitude": 14.6355
            }
        },
        {
            "domain": "xb",
            "tag": "nextbike-trutnov",
            "meta": {
                "name": "nextbike Trutnov",
                "city": "Trutnov",
                "country": "CZ",
                "latitude": 50.5616,
                "longitude": 15.9126
            }
        },
        {
            "domain": "rr",
            "tag": "dcs-bike",
            "city_uid": 860,
            "meta": {
                "name": "DCS Bike",
                "city": "Mannheim",
                "country": "DE",
                "latitude": 49.5346,
                "longitude": 8.47004
            }
        },
        {
            "domain": "mx",
            "tag": "movemix-bike",
            "city_uid": 943,
            "meta": {
                "name": "Movemix Bike",
                "city": "Halle (Saale)",
                "country": "DE",
                "latitude": 51.4938,
                "longitude": 11.9628
            }
        },
        {
            "domain": "we",
            "tag": "westcargo-bristol",
            "city_uid": 946,
            "meta": {
                "name": "WESTcargo Bristol",
                "city": "Bristol",
                "country": "GB",
                "latitude": 51.4587,
                "longitude": -2.57355
            }
        },
        {
            "domain": "we",
            "tag": "westcargo-bath",
            "city_uid": 947,
            "meta": {
                "name": "WESTcargo Bath",
                "city": "Bath",
                "country": "GB",
                "latitude": 51.3814,
                "longitude": -2.35519
            }
        },
        {
            "domain": "rv",
            "tag": "slatina-velo-city",
            "city_uid": 945,
            "meta": {
                "name": "Slatina Velo City",
                "city": "Slatina",
                "country": "RO",
                "latitude": 44.4299,
                "longitude": 24.3716
            }
        },
        {
            "domain": "av",
            "tag": "senica-bajk",
            "city_uid": 942,
            "meta": {
                "name": "SENICA BAJK",
                "city": "Senica",
                "country": "SK",
                "latitude": 48.676,
                "longitude": 17.3642
            }
        },
        {
            "domain": "kk",
            "tag": "mein-konrad-konstanz",
            "city_uid": 1042,
            "meta": {
                "name": "Mein konrad",
                "city": "Konstanz",
                "country": "DE",
                "latitude": 47.6732,
                "longitude": 9.1663
            }
        },
        {
            "domain": "en",
            "tag": "torrentbici",
            "city_uid": 1056,
            "meta": {
                "city": "Torrent",
                "country": "ES",
                "name": "TorrentBici",
                "latitude": 39.4319,
                "longitude": -0.473
            }
        },
        {
            "domain": "ej",
            "tag": "bicilog",
            "city_uid": 1052,
            "meta": {
                "city": "Logro\u00f1o",
                "country": "ES",
                "latitude": 42.4658,
                "longitude": -2.4402,
                "name": "BiciLog"
            }
        },
        {
            "domain": "la",
            "tag": "nextbike-niederosterreich",
            "meta": {
                "latitude": 48.2515,
                "longitude": 16.0993,
                "city": "Nieder\u00f6sterreich",
                "country": "AT"
            }
        },
        {
            "domain": "co",
            "tag": "nextbike-benesov",
            "meta": {
                "city": "Bene\u0161ov",
                "country": "CZ",
                "latitude": 49.7827,
                "longitude": 14.6867
            }
        },
        {
            "domain": "cq",
            "tag": "nextbike-pelhrimov",
            "meta": {
                "city": "Pelh\u0159imov",
                "country": "CZ",
                "latitude": 49.4295,
                "longitude": 15.2239
            }
        },
        {
            "domain": "ko",
            "tag": "nextbike-klasterec-nad-ohri",
            "meta": {
                "city": "Kl\u00e1\u0161terec nad Oh\u0159\u00ed",
                "country": "CZ",
                "latitude": 50.3861,
                "longitude": 13.1771
            }
        },
        {
            "domain": "lo",
            "tag": "nextbike-lovosice",
            "meta": {
                "city": "Lovosice",
                "country": "CZ",
                "latitude": 50.5147,
                "longitude": 14.0542
            }
        },
        {
            "domain": "nc",
            "tag": "nextbike-ceska-trebova",
            "meta": {
                "city": "\u010cesk\u00e1 T\u0159ebov\u00e1",
                "country": "CZ",
                "latitude": 49.9021,
                "longitude": 16.4458
            }
        },
        {
            "domain": "ni",
            "tag": "nextbike-kolin",
            "meta": {
                "city": "Kol\u00edn",
                "country": "CZ",
                "latitude": 50.0269,
                "longitude": 15.21
            }
        },
        {
            "domain": "oc",
            "tag": "nextbike-kahan",
            "meta": {
                "city": "Mikroregion Kahan",
                "country": "CZ",
                "latitude": 49.188,
                "longitude": 16.3631
            }
        },
        {
            "domain": "tu",
            "tag": "nextbike-trebic",
            "meta": {
                "city": "T\u0159eb\u00ed\u010d",
                "country": "CZ",
                "latitude": 49.2149,
                "longitude": 15.8794
            }
        },
        {
            "domain": "ud",
            "tag": "nextbike-jablonec",
            "meta": {
                "city": "Jablonec nad Nisou",
                "country": "CZ",
                "latitude": 50.7225,
                "longitude": 15.1681
            }
        },
        {
            "domain": "uf",
            "tag": "nextbike-horice",
            "meta": {
                "city": "Ho\u0159ice",
                "country": "CZ",
                "latitude": 50.3704,
                "longitude": 15.6327
            }
        },
        {
            "domain": "vm",
            "tag": "nextbike-valassko",
            "meta": {
                "city": "Vala\u0161sk\u00e9 Mezi\u0159\u00ed\u010d\u00ed - Za\u0161ov\u00e1 - Vset\u00edn - Ro\u017enov pod Radho\u0161t\u011bm",
                "country": "CZ",
                "latitude": 49.4725,
                "longitude": 17.9765
            }
        },
        {
            "domain": "xa",
            "tag": "nextbike-liberec",
            "meta": {
                "city": "Liberec",
                "country": "CZ",
                "latitude": 50.7646,
                "longitude": 15.0531
            }
        },
        {
            "domain": "xc",
            "tag": "nextbike-moravska-trebova",
            "meta": {
                "city": "Moravsk\u00e1 T\u0159ebov\u00e1",
                "country": "CZ",
                "latitude": 49.7601,
                "longitude": 16.6573
            }
        },
        {
            "domain": "af",
            "tag": "velocite-mulhouse",
            "meta": {
                "latitude": 47.750839,
                "country": "FR",
                "name": "V\u00e9loCit\u00e9",
                "longitude": 7.335888,
                "city": "Mulhouse"
            }
        },
        {
            "domain": "ah",
            "tag": "velo2",
            "meta": {
                "latitude": 49.03561699999999,
                "country": "FR",
                "name": "V\u00e9lO2",
                "longitude": 2.060325,
                "city": "Cergy"
            }
        },
        {
            "domain": "by",
            "tag": "bibo",
            "meta": {
                "name": "bibo",
                "city": "Boadilla del Monte",
                "country": "ES",
                "latitude": 40.4125,
                "longitude": -3.8909
            }
        },
        {
            "domain": "ai",
            "tag": "nextbike-velo-city-alba-iulia",
            "meta": {
                "name": "Velo City",
                "city": "Alba Iulia",
                "country": "RO",
                "latitude": 46.0687,
                "longitude": 23.5746
            }
        },
        {
            "domain": "bv",
            "tag": "nextbike-velo-city-buzau",
            "meta": {
                "name": "Velo City",
                "city": "Buz\u0103u",
                "country": "RO",
                "latitude": 45.1504,
                "longitude": 26.8188
            }
        },
        {
            "domain": "bx",
            "tag": "nextbike-tubabike-barcelos",
            "meta": {
                "name": "Tuba Bike",
                "city": "Barcelos",
                "country": "PT",
                "latitude": 41.5616,
                "longitude": -8.56778
            }
        },
        {
            "domain": "cv",
            "tag": "nextbike-porec-bike-share-croatia",
            "meta": {
                "name": "Porec bike share",
                "city": "Pore\u010d",
                "country": "HR",
                "latitude": 45.2276,
                "longitude": 13.5972
            }
        },
        {
            "domain": "eq",
            "tag": "nextbike-eventbike-austria",
            "meta": {
                "name": "EVENTbike",
                "city": "Austria",
                "country": "AT",
                "latitude": 47.8583,
                "longitude": 16.7706
            }
        },
        {
            "domain": "ev",
            "tag": "nextbike-flux-bikesharing",
            "meta": {
                "name": "flux Bikesharing",
                "city": "Friedrichsdorf - Neu-Anspach - Usingen",
                "country": "DE",
                "latitude": 50.3033,
                "longitude": 8.56041
            }
        },
        {
            "domain": "gk",
            "tag": "nextbike-grad-krizevci",
            "meta": {
                "name": "Grad Kri\u017eevci",
                "city": "Kri\u017eevci",
                "country": "HR",
                "latitude": 46.0225,
                "longitude": 16.5482
            }
        },
        {
            "domain": "gs",
            "tag": "nextbike-prishtina-bike",
            "meta": {
                "name": "Prishtina bike",
                "city": "Prishtina",
                "country": "XK",
                "latitude": 42.6729,
                "longitude": 21.1907
            }
        },
        {
            "domain": "gu",
            "tag": "nextbike-bike-sharing-elliniko-argyroupoli",
            "meta": {
                "name": "Bike Sharing Elliniko \u2013 Argyroupoli",
                "city": "Elliniko",
                "country": "GR",
                "latitude": 37.8925,
                "longitude": 23.7479
            }
        },
        {
            "domain": "gv",
            "tag": "nextbike-bike-sharing-alimos",
            "meta": {
                "name": "Bike Sharing Alimos",
                "city": "Alimos",
                "country": "GR",
                "latitude": 37.917,
                "longitude": 23.7188
            }
        },
        {
            "domain": "gy",
            "tag": "nextbike-bike-sharing-palaio-faliro",
            "meta": {
                "name": "Bike Sharing Palaio Faliro",
                "city": "Palaio Faliro",
                "country": "GR",
                "latitude": 37.9281,
                "longitude": 23.7014
            }
        },
        {
            "domain": "hf",
            "tag": "nextbike-vlaamse-rand",
            "meta": {
                "city": "Vlaamse Rand",
                "country": "BE",
                "latitude": 50.646,
                "longitude": 4.62524
            }
        },
        {
            "domain": "lc",
            "tag": "nextbike-landkreis-nordsachsen",
            "meta": {
                "city": "Schkeuditz",
                "country": "DE",
                "latitude": 51.3941,
                "longitude": 12.2456
            }
        },
        {
            "domain": "ma",
            "tag": "nextbike-bike-share-lanterna",
            "meta": {
                "name": "BIKE SHARE LANTERNA",
                "city": "Camp Lanterna",
                "country": "HR",
                "latitude": 45.298,
                "longitude": 13.5927
            }
        },
        {
            "domain": "ms",
            "tag": "nextbike-mooinz",
            "meta": {
                "name": "MOOINZ",
                "city": "Chur",
                "country": "CH",
                "latitude": 46.8542,
                "longitude": 9.52676
            }
        },
        {
            "domain": "rc",
            "tag": "nextbike-bikecity-campia-turzii",
            "meta": {
                "name": "BikeCity",
                "city": "Campia Turzii",
                "country": "RO",
                "latitude": 46.5459,
                "longitude": 23.8832
            }
        },
        {
            "domain": "rt",
            "tag": "nextbike-topoloveni-bike",
            "meta": {
                "name": "Topoloveni Bike",
                "city": "Topoloveni",
                "country": "RO",
                "latitude": 44.8082,
                "longitude": 25.084
            }
        },
        {
            "domain": "rw",
            "tag": "nextbike-bike-city-slobozia",
            "meta": {
                "name": "Bike City",
                "city": "Slobozia",
                "country": "RO",
                "latitude": 44.5653,
                "longitude": 27.3629
            }
        },
        {
            "domain": "zc",
            "tag": "e-cargobike-goteborg",
            "meta": {
                "name": "e-Cargobike Sharing",
                "city": "G\u00f6teborg",
                "country": "SE",
                "latitude": 57.7005,
                "longitude": 11.9504
            }
        },
        {
            "domain": "as",
            "tag": "nextbike-arriva-bike",
            "meta": {
                "name": "Arriva Bike",
                "city": "Senec",
                "country": "SK",
                "latitude": 48.3091,
                "longitude": 18.0862
            }
        },
        {
            "domain": "cm",
            "tag": "nextbike-vinkovci",
            "meta": {
                "city": "Vinkovci",
                "country": "HR",
                "latitude": 45.3082,
                "longitude": 18.823
            }
        },
        {
            "domain": "hr",
            "tag": "nextbike-croatia",
            "meta": {
                "city": "Croatia",
                "country": "HR",
                "latitude": 45.213,
                "longitude": 16.1499
            }
        },
        {
            "domain": "se",
            "city_uid": 977,
            "tag": "nextbike-dalmacija-stankovci",
            "meta": {
                "city": "Stankovci",
                "country": "HR",
                "latitude": 43.9071,
                "longitude": 15.695
            }
        }
    ],
    "system": "nextbike",
    "class": "Nextbike"
}
