{
    "instances": [
        {
            "domain": "ur",
            "tag": "usedomrad-usedom",
            "city_uid": 176,
            "meta": {
                "name": "UsedomRad",
                "city": "Usedom",
                "country": "DE",
                "latitude": 53.9779,
                "longitude": 13.9925
            }
        },
        {
            "domain": "nu",
            "tag": "nextbike-lviv",
            "city_uid": 280,
            "meta": {
                "city": "Lviv",
                "country": "UA",
                "latitude": 49.8402,
                "longitude": 24.0182
            }
        },
        {
            "domain": "nu",
            "tag": "nextbike-ivano-frankivsk",
            "city_uid": 525,
            "meta": {
                "city": "Ivano Frankivsk",
                "country": "UA",
                "latitude": 48.9281,
                "longitude": 24.7103
            }
        },
        {
            "domain": "bh",
            "tag": "bubi",
            "city_uid": 699,
            "meta": {
                "latitude": 47.497912,
                "longitude": 19.040235,
                "city": "Budapest",
                "name": "MOL Bubi",
                "country": "HU"
            }
        },
        {
            "domain": "nu",
            "tag": "lviv-odessa",
            "city_uid": 525,
            "meta": {
                "city": "Odessa",
                "country": "UA",
                "latitude": 46.463,
                "longitude": 30.7042
            }
        },
        {
            "domain": "uv",
            "tag": "nextbike-vinnytsia",
            "city_uid": 546,
            "meta": {
                "city": "Vinnytsia",
                "country": "UA",
                "latitude": 49.2328,
                "longitude": 28.4625
            }
        },
        {
            "domain": "dr",
            "tag": "rvk",
            "city_uid": 648,
            "meta": {
                "name": "RVK",
                "city": "RVK e-Bike",
                "country": "DE",
                "latitude": 50.7069,
                "longitude": 6.87607
            }
        },
        {
            "domain": "ia",
            "tag": "arval-scandicci",
            "city_uid": 746,
            "meta": {
                "name": "ARVAL",
                "city": "Scandicci",
                "country": "IT",
                "latitude": 43.7701,
                "longitude": 11.1592
            }
        },
        {
            "domain": "um",
            "tag": "mvrad-hq",
            "meta": {
                "name": "MV-Rad",
                "city": "MV-Rad",
                "country": "DE",
                "latitude": 53.6707,
                "longitude": 12.4255
            }
        },
        {
            "domain": "ug",
            "tag": "greifswald",
            "city_uid": 759,
            "meta": {
                "name": "StadtRad Greifswald",
                "city": "Greifswald (StadtRad)",
                "country": "DE",
                "latitude": 54.0961,
                "longitude": 13.3787
            }
        },
        {
            "domain": "mz",
            "tag": "mvg-meinrad-nextbike-mainz",
            "city_uid": 755,
            "meta": {
                "name": "meinRad MVG Mainz",
                "city": "Mainz",
                "country": "DE",
                "latitude": 50.0153,
                "longitude": 8.252,
                "company": [
                    "Mainzer Verkehrsgesellschaft mbH"
                ]
            }
        },
        {
            "domain": "wa",
            "tag": "nextbike-welo",
            "meta": {
                "name": "welo",
                "city": "Welo",
                "country": "DE",
                "latitude": 50.7147,
                "longitude": 7.12875
            }
        }
    ],
    "system": "nextbike",
    "class": "Nextbike"
}