{
    "system":"smoove",
    "class":{
        "SmooveAPI":{
            "instances":[]
        },
        "Smoove":{
            "instances":[
                {
                    "tag":"c-velo",
                    "meta":{
                        "latitude":45.770958,
                        "city":"Clermont-Ferrand",
                        "name":"C.V\u00e9lo",
                        "longitude":3.073871,
                        "country":"FR"
                    },
                    "feed_url":"http://www.c-velo.fr/sag_vls_stations.html"
                },
                {
                    "tag":"velivert",
                    "meta":{
                        "latitude":45.396667,
                        "city":"Saint-\u00c9tienne",
                        "name":"V\u00e9liVert",
                        "longitude":4.290833,
                        "country":"FR"
                    },
                    "feed_url":"http://www.velivert.fr/sag_vls_stations.html"
                },
                {
                    "tag":"velopop",
                    "meta":{
                        "latitude":43.943689,
                        "city":"Avignon",
                        "name":"V\u00e9lopop",
                        "longitude":4.805833,
                        "country":"FR"
                    },
                    "feed_url":"http://www.velopop.fr/stations.html"
                },
                {
                    "tag":"libelo",
                    "meta":{
                        "latitude":44.922726,
                        "city":"Valence",
                        "name":"Lib\u00e9lo",
                        "longitude":4.905634,
                        "country":"FR"
                    },
                    "feed_url":"http://www.velo-libelo.fr/sag_stations_vls.html"
                },
                {
                    "tag":"batumvelo",
                    "meta":{
                        "latitude":41.660906,
                        "city":"Batumi",
                        "name":"Batumvelo",
                        "longitude":41.678835,
                        "country":"GE"
                    },
                    "feed_url":"http://cli-velo-batumi.gir.fr/sag_map.html"
                }
            ]
        }
    }
}
